{"links":{"self":"http://localhost/~mirko/epicollect5-server/public//api/internal/entries-locations/bestpint?form_ref=b8a4ac0a586b46dd8ad41ecf9eff39a7_577bc67fe09a3&parent_form_ref=&branch=&branch_ref=&branch_owner_uuid=&parent_uuid=&uuid=&input_ref=b8a4ac0a586b46dd8ad41ecf9eff39a7_577bc67fe09a3_577bc6b692f1a&per_page=50000&sort_by=created_at&sort_order=DESC&map_index=2&filter_by=&filter_from=&filter_to=&format=json&headers=true&title=&page=1","first":"http://localhost/~mirko/epicollect5-server/public//api/internal/entries-locations/bestpint?form_ref=b8a4ac0a586b46dd8ad41ecf9eff39a7_577bc67fe09a3&parent_form_ref=&branch=&branch_ref=&branch_owner_uuid=&parent_uuid=&uuid=&input_ref=b8a4ac0a586b46dd8ad41ecf9eff39a7_577bc67fe09a3_577bc6b692f1a&per_page=50000&sort_by=created_at&sort_order=DESC&map_index=2&filter_by=&filter_from=&filter_to=&format=json&headers=true&title=&page=1","prev":null,"next":null,"last":"http://localhost/~mirko/epicollect5-server/public//api/internal/entries-locations/bestpint?form_ref=b8a4ac0a586b46dd8ad41ecf9eff39a7_577bc67fe09a3&parent_form_ref=&branch=&branch_ref=&branch_owner_uuid=&parent_uuid=&uuid=&input_ref=b8a4ac0a586b46dd8ad41ecf9eff39a7_577bc67fe09a3_577bc6b692f1a&per_page=50000&sort_by=created_at&sort_order=DESC&map_index=2&filter_by=&filter_from=&filter_to=&format=json&headers=true&title=&page=1"},"meta":{"total":267,"per_page":50000,"current_page":1,"last_page":1,"from":1,"to":1},"data":{"id":"bestpint","type":"geojson","geojson":{"type":"FeatureCollection","features":[{"id":"29c7c8d0-e637-4f1c-8591-5f4dd5554747","type":"Feature","geometry":{"type":"Point","coordinates":[12.005016,45.900574]},"properties":{"uuid":"29c7c8d0-e637-4f1c-8591-5f4dd5554747","title":"29c7c8d0-e637-4f1c-8591-5f4dd5554747","accuracy":16,"created_at":"2020-05-04","possible_answers":{"577bc6c392f1c":1}}},{"id":"1383969f-d440-4ad2-8e93-b280e2768623","type":"Feature","geometry":{"type":"Point","coordinates":[-0.019106,51.583362]},"properties":{"uuid":"1383969f-d440-4ad2-8e93-b280e2768623","title":"Lost Colony","accuracy":19,"created_at":"2018-02-24","possible_answers":{"577bc70392f1e":1}}},{"id":"9a1abb39-63b9-4247-b04c-c4be43b234d8","type":"Feature","geometry":{"type":"Point","coordinates":[-0.324642,51.25299]},"properties":{"uuid":"9a1abb39-63b9-4247-b04c-c4be43b234d8","title":"Razor Back","accuracy":12,"created_at":"2018-02-17","possible_answers":{"577bc70392f1e":1}}},{"id":"d2b1d3f2-6686-4cb0-bac9-4c9dcffa8cb1","type":"Feature","geometry":{"type":"Point","coordinates":[-0.20096,51.523031]},"properties":{"uuid":"d2b1d3f2-6686-4cb0-bac9-4c9dcffa8cb1","title":"Wolf Rock","accuracy":12,"created_at":"2018-02-13","possible_answers":{"577bc70392f1e":1}}},{"id":"a9edc6a3-55e7-4c83-b473-a5cd4bfdf3d9","type":"Feature","geometry":{"type":"Point","coordinates":[-13.669393,28.919867]},"properties":{"uuid":"a9edc6a3-55e7-4c83-b473-a5cd4bfdf3d9","title":"Picara","accuracy":19,"created_at":"2018-02-10","possible_answers":{"577bc70392f1e":1}}},{"id":"733628a1-8bc0-408c-877c-c01e5ac4ee2d","type":"Feature","geometry":{"type":"Point","coordinates":[-13.66938,28.91984]},"properties":{"uuid":"733628a1-8bc0-408c-877c-c01e5ac4ee2d","title":"QARA Princesa de Agua","accuracy":4,"created_at":"2018-02-09","possible_answers":{"577bc70392f1e":1}}},{"id":"ecfa7165-9de1-4bf7-9de7-79638463e4bf","type":"Feature","geometry":{"type":"Point","coordinates":[-13.669165,28.91997]},"properties":{"uuid":"ecfa7165-9de1-4bf7-9de7-79638463e4bf","title":"Mahou Negra","accuracy":33,"created_at":"2018-02-08","possible_answers":{"577bc70392f1e":1}}},{"id":"73b6ec8b-1abd-428e-9001-86499e4b6492","type":"Feature","geometry":{"type":"Point","coordinates":[-13.669386,28.919831]},"properties":{"uuid":"73b6ec8b-1abd-428e-9001-86499e4b6492","title":"Carnaval Pale Ale","accuracy":4,"created_at":"2018-02-08","possible_answers":{"577bc70392f1e":1}}},{"id":"e6b22c4e-ab45-4694-aa0c-eec8f84cfd9f","type":"Feature","geometry":{"type":"Point","coordinates":[-13.669396,28.919853]},"properties":{"uuid":"e6b22c4e-ab45-4694-aa0c-eec8f84cfd9f","title":"Benediktiner Weissbier","accuracy":4,"created_at":"2018-02-07","possible_answers":{"577bc6c392f1c":1}}},{"id":"4a40bc3f-f866-43b6-9732-372ecf43542d","type":"Feature","geometry":{"type":"Point","coordinates":[-13.669424,28.9198]},"properties":{"uuid":"4a40bc3f-f866-43b6-9732-372ecf43542d","title":"Surf Beer","accuracy":4,"created_at":"2018-02-06","possible_answers":{"577bc70392f1e":1}}},{"id":"07d6077f-1188-47ef-8ad3-88f4d8dfc5f2","type":"Feature","geometry":{"type":"Point","coordinates":[12.053578,45.862051]},"properties":{"uuid":"07d6077f-1188-47ef-8ad3-88f4d8dfc5f2","title":"Witches Cauldron","accuracy":1900,"created_at":"2018-01-07","possible_answers":{"577bc6c392f1c":1}}},{"id":"23d8a1aa-1e28-4df9-b3d2-434cf2484ccc","type":"Feature","geometry":{"type":"Point","coordinates":[11.989912,45.854557]},"properties":{"uuid":"23d8a1aa-1e28-4df9-b3d2-434cf2484ccc","title":"Westmall Tripel","accuracy":4,"created_at":"2018-01-05","possible_answers":{"577bc6c392f1c":1}}},{"id":"c4823cf2-4ea8-454e-83d7-dce117abf624","type":"Feature","geometry":{"type":"Point","coordinates":[11.989901,45.854549]},"properties":{"uuid":"c4823cf2-4ea8-454e-83d7-dce117abf624","title":"Cane Pazzo American IPA","accuracy":4,"created_at":"2018-01-05","possible_answers":{"577bc6c392f1c":1}}},{"id":"7a633eda-f32e-4236-ac2c-a6ac2e6e5f08","type":"Feature","geometry":{"type":"Point","coordinates":[12.044556,45.829386]},"properties":{"uuid":"7a633eda-f32e-4236-ac2c-a6ac2e6e5f08","title":"Alpha Beta Session IPA","accuracy":11,"created_at":"2018-01-04","possible_answers":{"577bc70392f1e":1}}},{"id":"7a2b6c15-c98d-4a6a-a18a-4870091f6f42","type":"Feature","geometry":{"type":"Point","coordinates":[12.060802,45.857654]},"properties":{"uuid":"7a2b6c15-c98d-4a6a-a18a-4870091f6f42","title":"Dunkel Weissbier","accuracy":30,"created_at":"2018-01-03","possible_answers":{"577bc6c392f1c":1}}},{"id":"af77d904-6df8-4556-99e6-9ada1e0f0767","type":"Feature","geometry":{"type":"Point","coordinates":[12.00471,45.830236]},"properties":{"uuid":"af77d904-6df8-4556-99e6-9ada1e0f0767","title":"Paulaner Zwickl","accuracy":293,"created_at":"2017-12-30","possible_answers":{"577bc70392f1e":1}}},{"id":"5b90a86f-2615-4171-83ca-7ec65d920bff","type":"Feature","geometry":{"type":"Point","coordinates":[12.025188,45.851881]},"properties":{"uuid":"5b90a86f-2615-4171-83ca-7ec65d920bff","title":"La Bianca","accuracy":5,"created_at":"2017-12-29","possible_answers":{"577bc70392f1e":1}}},{"id":"dfc42b1a-5a57-493a-b050-9a4c4e467af8","type":"Feature","geometry":{"type":"Point","coordinates":[12.005181,45.830067]},"properties":{"uuid":"dfc42b1a-5a57-493a-b050-9a4c4e467af8","title":"Affigen Christmas","accuracy":5,"created_at":"2017-12-21","possible_answers":{"577bc70392f1e":1}}},{"id":"a35ca1ad-c538-4074-bce1-8c9c7c86e42e","type":"Feature","geometry":{"type":"Point","coordinates":[-0.046532,51.493]},"properties":{"uuid":"a35ca1ad-c538-4074-bce1-8c9c7c86e42e","title":"SA Welsh Ale","accuracy":12,"created_at":"2017-12-14","possible_answers":{"577bc70392f1e":1}}},{"id":"d57667dd-e9bd-4681-a1a3-5a451b2a030b","type":"Feature","geometry":{"type":"Point","coordinates":[-0.046524,51.493003]},"properties":{"uuid":"d57667dd-e9bd-4681-a1a3-5a451b2a030b","title":"Vanilla Cream Ale","accuracy":18,"created_at":"2017-12-14","possible_answers":{"577bc70792f1f":1}}},{"id":"b0de5020-dd93-11e7-9a66-e368a64c2a0f","type":"Feature","geometry":{"type":"Point","coordinates":[-0.046981,51.55295]},"properties":{"uuid":"b0de5020-dd93-11e7-9a66-e368a64c2a0f","title":"Milk Chocolate Coffee Stout","accuracy":4,"created_at":"2017-12-10","possible_answers":{"577bc70392f1e":1}}},{"id":"8bf527c0-dd93-11e7-9a66-e368a64c2a0f","type":"Feature","geometry":{"type":"Point","coordinates":[-0.046981,51.55295]},"properties":{"uuid":"8bf527c0-dd93-11e7-9a66-e368a64c2a0f","title":"Brewers Reserve 2010 Vintage","accuracy":4,"created_at":"2017-12-10","possible_answers":{"577bc70392f1e":1}}},{"id":"71c47180-dd93-11e7-9a66-e368a64c2a0f","type":"Feature","geometry":{"type":"Point","coordinates":[-0.046981,51.55295]},"properties":{"uuid":"71c47180-dd93-11e7-9a66-e368a64c2a0f","title":"Brew No 40","accuracy":4,"created_at":"2017-12-10","possible_answers":{"577bc6c392f1c":1}}},{"id":"49d200c0-dd93-11e7-9a66-e368a64c2a0f","type":"Feature","geometry":{"type":"Point","coordinates":[-0.046981,51.55295]},"properties":{"uuid":"49d200c0-dd93-11e7-9a66-e368a64c2a0f","title":"Decadence Stout","accuracy":4,"created_at":"2017-12-10","possible_answers":{"577bc70392f1e":1}}},{"id":"16692510-dd93-11e7-9a66-e368a64c2a0f","type":"Feature","geometry":{"type":"Point","coordinates":[-0.046981,51.55295]},"properties":{"uuid":"16692510-dd93-11e7-9a66-e368a64c2a0f","title":"Papworth Long Tom","accuracy":4,"created_at":"2017-12-10","possible_answers":{"577bc70392f1e":1}}},{"id":"b0e60dc0-dd92-11e7-9a66-e368a64c2a0f","type":"Feature","geometry":{"type":"Point","coordinates":[-0.046981,51.55295]},"properties":{"uuid":"b0e60dc0-dd92-11e7-9a66-e368a64c2a0f","title":"Marvelous Maple Mild Extra","accuracy":4,"created_at":"2017-12-10","possible_answers":{"577bc6c392f1c":1}}},{"id":"280eed00-dd92-11e7-9a66-e368a64c2a0f","type":"Feature","geometry":{"type":"Point","coordinates":[-0.052153,51.55343]},"properties":{"uuid":"280eed00-dd92-11e7-9a66-e368a64c2a0f","title":"Oregon Amber","accuracy":4,"created_at":"2017-12-10","possible_answers":{"577bc70392f1e":1}}},{"id":"eb65e750-dd91-11e7-9a66-e368a64c2a0f","type":"Feature","geometry":{"type":"Point","coordinates":[-0.16625,51.514559]},"properties":{"uuid":"eb65e750-dd91-11e7-9a66-e368a64c2a0f","title":"Rocking Rudolph","accuracy":4263,"created_at":"2017-12-10","possible_answers":{"577bc70792f1f":1}}},{"id":"87cdb010-dd91-11e7-9a66-e368a64c2a0f","type":"Feature","geometry":{"type":"Point","coordinates":[-0.179098,51.496476]},"properties":{"uuid":"87cdb010-dd91-11e7-9a66-e368a64c2a0f","title":"American Style IPA","accuracy":4263,"created_at":"2017-12-10","possible_answers":{"577bc70392f1e":1}}},{"id":"20d15ad8-03bc-475f-b77e-a1b3a65d4f63","type":"Feature","geometry":{"type":"Point","coordinates":[-0.206178,51.420452]},"properties":{"uuid":"20d15ad8-03bc-475f-b77e-a1b3a65d4f63","title":"Wimbledon Bravo APA","accuracy":19,"created_at":"2017-12-09","possible_answers":{"577bc70392f1e":1}}},{"id":"b258fc41-f31e-429b-afc6-9d04312cc154","type":"Feature","geometry":{"type":"Point","coordinates":[-0.208076,51.421776]},"properties":{"uuid":"b258fc41-f31e-429b-afc6-9d04312cc154","title":"Wimbledon XXK Winter Ale","accuracy":17,"created_at":"2017-12-09","possible_answers":{"577bc70392f1e":1}}},{"id":"baa28eba-ebcb-4e5a-b907-d58135cd6745","type":"Feature","geometry":{"type":"Point","coordinates":[12.005111,45.830046]},"properties":{"uuid":"baa28eba-ebcb-4e5a-b907-d58135cd6745","title":"Paulaner Oktoberfest","accuracy":8,"created_at":"2017-11-05","possible_answers":{"577bc70392f1e":1}}},{"id":"2773bdc8-a0af-46d6-92f9-5eddcd06e41b","type":"Feature","geometry":{"type":"Point","coordinates":[12.060828,45.857809]},"properties":{"uuid":"2773bdc8-a0af-46d6-92f9-5eddcd06e41b","title":"Barnsley Gold","accuracy":20,"created_at":"2017-11-04","possible_answers":{"577bc6c392f1c":1}}},{"id":"f2337b6e-a7be-467d-8409-7ec1c10804de","type":"Feature","geometry":{"type":"Point","coordinates":[12.060781,45.857757]},"properties":{"uuid":"f2337b6e-a7be-467d-8409-7ec1c10804de","title":"Highlander","accuracy":20,"created_at":"2017-11-04","possible_answers":{"577bc6c392f1c":1}}},{"id":"e8b91a23-a522-4d12-a272-6454c39a7af1","type":"Feature","geometry":{"type":"Point","coordinates":[12.005485,45.850028]},"properties":{"uuid":"e8b91a23-a522-4d12-a272-6454c39a7af1","title":"1703","accuracy":18,"created_at":"2017-11-03","possible_answers":{"577bc6c392f1c":1}}},{"id":"b987896b-fc42-473b-87c7-cde247d8644e","type":"Feature","geometry":{"type":"Point","coordinates":[12.025206,45.851861]},"properties":{"uuid":"b987896b-fc42-473b-87c7-cde247d8644e","title":"Medea","accuracy":17,"created_at":"2017-10-30","possible_answers":{"577bc6c392f1c":1}}},{"id":"c04c0aa4-851a-14f5-a20b-2b45cadbccc1","type":"Feature","geometry":{"type":"Point","coordinates":[0.121242,52.199579]},"properties":{"uuid":"c04c0aa4-851a-14f5-a20b-2b45cadbccc1","title":"Tea","accuracy":65,"created_at":"2017-10-22","possible_answers":{"577bc6c392f1c":1}}},{"id":"dc6b9153-21fa-f2ae-fec2-2136e5f30328","type":"Feature","geometry":{"type":"Point","coordinates":[7.852768,47.997863]},"properties":{"uuid":"dc6b9153-21fa-f2ae-fec2-2136e5f30328","title":"Rothaus pils","accuracy":6,"created_at":"2017-10-18","possible_answers":{"577bc6c392f1c":1}}},{"id":"8e2e8278-7e8a-2564-e12e-9281cd3eff9f","type":"Feature","geometry":{"type":"Point","coordinates":[7.847433,47.985945]},"properties":{"uuid":"8e2e8278-7e8a-2564-e12e-9281cd3eff9f","title":"CanterBier","accuracy":65,"created_at":"2017-10-18","possible_answers":{"577bc6c392f1c":1}}},{"id":"ecd5bfd3-57d6-1f92-b340-3b3f186080e4","type":"Feature","geometry":{"type":"Point","coordinates":[-4.618101,50.382969]},"properties":{"uuid":"ecd5bfd3-57d6-1f92-b340-3b3f186080e4","title":"Coaster","accuracy":12,"created_at":"2017-10-16","possible_answers":{"577bc70392f1e":1}}},{"id":"0c532452-7d02-9f95-75a5-251142a86dbf","type":"Feature","geometry":{"type":"Point","coordinates":[-4.818974,50.235472]},"properties":{"uuid":"0c532452-7d02-9f95-75a5-251142a86dbf","title":"Roughtor","accuracy":15,"created_at":"2017-10-15","possible_answers":{"577bc6c392f1c":1}}},{"id":"eeda724e-873c-ed76-c9ba-c76ec8e39070","type":"Feature","geometry":{"type":"Point","coordinates":[-4.819236,50.235379]},"properties":{"uuid":"eeda724e-873c-ed76-c9ba-c76ec8e39070","title":"Proper Job","accuracy":18,"created_at":"2017-10-15","possible_answers":{"577bc70392f1e":1}}},{"id":"0226995d-aaa3-1c69-648d-77a0b19d2347","type":"Feature","geometry":{"type":"Point","coordinates":[-4.785878,50.262445]},"properties":{"uuid":"0226995d-aaa3-1c69-648d-77a0b19d2347","title":"Tribute","accuracy":6,"created_at":"2017-10-14","possible_answers":{"577bc6c392f1c":1}}},{"id":"6933baba-eabe-9580-7585-edcbbc6ea8c6","type":"Feature","geometry":{"type":"Point","coordinates":[12.048065,45.778125]},"properties":{"uuid":"6933baba-eabe-9580-7585-edcbbc6ea8c6","title":"Tannen z\u00e4pfle","accuracy":1319,"created_at":"2017-09-30","possible_answers":{"577bc70392f1e":1}}},{"id":"1f0ef175-fd74-0040-fb7e-a229260cbf8b","type":"Feature","geometry":{"type":"Point","coordinates":[-0.266553,51.493222]},"properties":{"uuid":"1f0ef175-fd74-0040-fb7e-a229260cbf8b","title":"Dennis hopper IPA","accuracy":8,"created_at":"2017-09-28","possible_answers":{"577bc70392f1e":1}}},{"id":"6b41216c-90ac-a44f-8a13-d4932c6707c5","type":"Feature","geometry":{"type":"Point","coordinates":[-0.266461,51.493042]},"properties":{"uuid":"6b41216c-90ac-a44f-8a13-d4932c6707c5","title":"Beaver town - Gamma Ray","accuracy":12,"created_at":"2017-09-28","possible_answers":{"577bc6c392f1c":1}}},{"id":"84155c30-5174-6597-6684-bb0d45313f25","type":"Feature","geometry":{"type":"Point","coordinates":[12.043499,45.869449]},"properties":{"uuid":"84155c30-5174-6597-6684-bb0d45313f25","title":"Fort Lapin Blanche","accuracy":2738,"created_at":"2017-09-27","possible_answers":{"577bc70392f1e":1}}},{"id":"f7a57677-d6dc-0c69-34be-d8be86d42def","type":"Feature","geometry":{"type":"Point","coordinates":[12.089231,45.883616]},"properties":{"uuid":"f7a57677-d6dc-0c69-34be-d8be86d42def","title":"Shameless IPA","accuracy":2363,"created_at":"2017-09-27","possible_answers":{"577bc70392f1e":1}}},{"id":"e4b3e71f-2810-6810-a482-c54cbd4966ef","type":"Feature","geometry":{"type":"Point","coordinates":[-5.138817,55.643292]},"properties":{"uuid":"e4b3e71f-2810-6810-a482-c54cbd4966ef","title":"Belhaven Best","accuracy":5,"created_at":"2017-09-12","possible_answers":{"577bc70392f1e":1}}},{"id":"f9471cf9-dee9-7fec-7b58-79b5b88dacbe","type":"Feature","geometry":{"type":"Point","coordinates":[-5.288469,55.702797]},"properties":{"uuid":"f9471cf9-dee9-7fec-7b58-79b5b88dacbe","title":"Dark Island","accuracy":2570,"created_at":"2017-09-11","possible_answers":{"577bc70392f1e":1}}},{"id":"de798191-43c6-f6b6-7d4a-920af69f0bd4","type":"Feature","geometry":{"type":"Point","coordinates":[-5.155585,55.575015]},"properties":{"uuid":"de798191-43c6-f6b6-7d4a-920af69f0bd4","title":"Ax Man Rye Ipa","accuracy":26,"created_at":"2017-09-10","possible_answers":{"577bc6c392f1c":1}}},{"id":"cea83281-d785-4852-33b6-462d8270d68a","type":"Feature","geometry":{"type":"Point","coordinates":[-5.155388,55.574936]},"properties":{"uuid":"cea83281-d785-4852-33b6-462d8270d68a","title":"Isle of Arran Ale","accuracy":1466,"created_at":"2017-09-10","possible_answers":{"577bc70392f1e":1}}},{"id":"7c39be97-e0ed-2f8f-aa56-c45ba4bcd1e9","type":"Feature","geometry":{"type":"Point","coordinates":[-5.288372,55.70276]},"properties":{"uuid":"7c39be97-e0ed-2f8f-aa56-c45ba4bcd1e9","title":"Arran Blonde","accuracy":1224,"created_at":"2017-09-09","possible_answers":{"577bc70392f1e":1}}},{"id":"42d9fc0f-3e78-0601-a8bf-49cddfe3fc4f","type":"Feature","geometry":{"type":"Point","coordinates":[-0.224057,51.490547]},"properties":{"uuid":"42d9fc0f-3e78-0601-a8bf-49cddfe3fc4f","title":"Tribute Cornish Pale Ale","accuracy":8,"created_at":"2017-09-05","possible_answers":{"577bc6c392f1c":1}}},{"id":"92159dce-696a-a28d-760e-9e69e9dc3bc1","type":"Feature","geometry":{"type":"Point","coordinates":[-0.157741,51.52295]},"properties":{"uuid":"92159dce-696a-a28d-760e-9e69e9dc3bc1","title":"Old Growler","accuracy":1000,"created_at":"2017-09-04","possible_answers":{"577bc70792f1f":1}}},{"id":"fc537639-11da-7a7d-6bb5-e3237d761d76","type":"Feature","geometry":{"type":"Point","coordinates":[-0.225976,51.493274]},"properties":{"uuid":"fc537639-11da-7a7d-6bb5-e3237d761d76","title":"Oatmeal Stout","accuracy":1000,"created_at":"2017-08-28","possible_answers":{"577bc6c392f1c":1}}},{"id":"9371d25d-1b06-ef66-40cb-00daa793e365","type":"Feature","geometry":{"type":"Point","coordinates":[-3.831426,51.231409]},"properties":{"uuid":"9371d25d-1b06-ef66-40cb-00daa793e365","title":"Stag","accuracy":6,"created_at":"2017-08-27","possible_answers":{"577bc70392f1e":1}}},{"id":"18e6553e-0e93-ee57-4184-3044a4ed82cd","type":"Feature","geometry":{"type":"Point","coordinates":[-3.937416,51.171035]},"properties":{"uuid":"18e6553e-0e93-ee57-4184-3044a4ed82cd","title":"Exmoor Ale","accuracy":4,"created_at":"2017-08-26","possible_answers":{"577bc6c392f1c":1}}},{"id":"069cab12-fd2e-d385-f198-33abecfbe6ec","type":"Feature","geometry":{"type":"Point","coordinates":[-3.616934,51.077585]},"properties":{"uuid":"069cab12-fd2e-d385-f198-33abecfbe6ec","title":"Exmoor Gold","accuracy":4,"created_at":"2017-08-26","possible_answers":{"577bc70392f1e":1}}},{"id":"d1f3ff37-105c-2354-b137-de68fea2ecc1","type":"Feature","geometry":{"type":"Point","coordinates":[-3.617048,51.077536]},"properties":{"uuid":"d1f3ff37-105c-2354-b137-de68fea2ecc1","title":"Tarr Farm Best","accuracy":7,"created_at":"2017-08-26","possible_answers":{"577bc70392f1e":1}}},{"id":"c9f10202-32d5-7f37-8da1-914965aa58f3","type":"Feature","geometry":{"type":"Point","coordinates":[-3.868904,51.153468]},"properties":{"uuid":"c9f10202-32d5-7f37-8da1-914965aa58f3","title":"Cornish Best","accuracy":5,"created_at":"2017-08-25","possible_answers":{"577bc6c392f1c":1}}},{"id":"54395aee-a269-cf7b-285c-411f3beb8a25","type":"Feature","geometry":{"type":"Point","coordinates":[-3.86891,51.153514]},"properties":{"uuid":"54395aee-a269-cf7b-285c-411f3beb8a25","title":"Devon Dympsy","accuracy":4,"created_at":"2017-08-25","possible_answers":{"577bc70392f1e":1}}},{"id":"8b1caa1a-4bac-d0af-8f82-d38ce7e7544d","type":"Feature","geometry":{"type":"Point","coordinates":[-0.210518,51.496782]},"properties":{"uuid":"8b1caa1a-4bac-d0af-8f82-d38ce7e7544d","title":"Wrassler Stout xxxx","accuracy":8,"created_at":"2017-08-12","possible_answers":{"577bc70392f1e":1}}},{"id":"0652120a-4b48-f1bb-f3c5-779e38be45e4","type":"Feature","geometry":{"type":"Point","coordinates":[-0.211507,51.496848]},"properties":{"uuid":"0652120a-4b48-f1bb-f3c5-779e38be45e4","title":"Black Galloway","accuracy":18,"created_at":"2017-08-12","possible_answers":{"577bc70392f1e":1}}},{"id":"616b02f0-ff12-82e2-1323-3a587f943a95","type":"Feature","geometry":{"type":"Point","coordinates":[-0.209856,51.49624]},"properties":{"uuid":"616b02f0-ff12-82e2-1323-3a587f943a95","title":"Scarecrow","accuracy":69,"created_at":"2017-08-12","possible_answers":{"577bc70392f1e":1}}},{"id":"9873f2ed-52d6-573d-d0b9-2367a44304c3","type":"Feature","geometry":{"type":"Point","coordinates":[-0.210732,51.496946]},"properties":{"uuid":"9873f2ed-52d6-573d-d0b9-2367a44304c3","title":"Black Hearted","accuracy":21,"created_at":"2017-08-12","possible_answers":{"577bc6c392f1c":1}}},{"id":"e84b4fa3-9d56-40b9-02b2-47c75cd2e7f0","type":"Feature","geometry":{"type":"Point","coordinates":[-0.209313,51.496343]},"properties":{"uuid":"e84b4fa3-9d56-40b9-02b2-47c75cd2e7f0","title":"Embrasse","accuracy":28,"created_at":"2017-08-12","possible_answers":{"577bc6c392f1c":1}}},{"id":"1a0ce1be-d786-6a87-c752-9de1bad6a8b5","type":"Feature","geometry":{"type":"Point","coordinates":[-0.210319,51.497254]},"properties":{"uuid":"1a0ce1be-d786-6a87-c752-9de1bad6a8b5","title":"Iceberg Golden Ale","accuracy":34,"created_at":"2017-08-12","possible_answers":{"577bc70392f1e":1}}},{"id":"5ea21f20-7695-2aba-26d0-86f8897b5d16","type":"Feature","geometry":{"type":"Point","coordinates":[-0.210101,51.497127]},"properties":{"uuid":"5ea21f20-7695-2aba-26d0-86f8897b5d16","title":"Plum Porter","accuracy":14,"created_at":"2017-08-12","possible_answers":{"577bc6c392f1c":1}}},{"id":"4219fc8f-18f4-7b01-d4ad-0d339bd4ecc2","type":"Feature","geometry":{"type":"Point","coordinates":[-0.211222,51.496461]},"properties":{"uuid":"4219fc8f-18f4-7b01-d4ad-0d339bd4ecc2","title":"Huell Melon Pale Ale","accuracy":13,"created_at":"2017-08-12","possible_answers":{"577bc70792f1f":1}}},{"id":"8dc8a105-9650-63a7-16a8-0969e4c3f83e","type":"Feature","geometry":{"type":"Point","coordinates":[-0.21,51.496162]},"properties":{"uuid":"8dc8a105-9650-63a7-16a8-0969e4c3f83e","title":"Wild Swan","accuracy":31,"created_at":"2017-08-12","possible_answers":{"577bc70392f1e":1}}},{"id":"eeab0ebd-ba2a-3f7f-979d-ab22b2a2bf9d","type":"Feature","geometry":{"type":"Point","coordinates":[-0.137485,51.517065]},"properties":{"uuid":"eeab0ebd-ba2a-3f7f-979d-ab22b2a2bf9d","title":"Extra Stout","accuracy":1227,"created_at":"2017-08-08","possible_answers":{"577bc70392f1e":1}}},{"id":"2b4ac871-b88d-d69e-ba85-e4bfed7f8a5a","type":"Feature","geometry":{"type":"Point","coordinates":[-0.068275,51.5546]},"properties":{"uuid":"2b4ac871-b88d-d69e-ba85-e4bfed7f8a5a","title":"All day IPA","accuracy":12,"created_at":"2017-08-05","possible_answers":{"577bc70392f1e":1}}},{"id":"2fa8ac32-f72d-ed04-315c-f8fbdd7b0592","type":"Feature","geometry":{"type":"Point","coordinates":[1.025744,51.364326]},"properties":{"uuid":"2fa8ac32-f72d-ed04-315c-f8fbdd7b0592","title":"East India Pale Ale","accuracy":6,"created_at":"2017-07-22","possible_answers":{"577bc70392f1e":1}}},{"id":"345416cb-e318-73cc-983c-32cb0e2cfb8f","type":"Feature","geometry":{"type":"Point","coordinates":[-84.063354,9.935042]},"properties":{"uuid":"345416cb-e318-73cc-983c-32cb0e2cfb8f","title":"B\u016bho","accuracy":1078,"created_at":"2017-07-14","possible_answers":{"577bc6c392f1c":1}}},{"id":"f7bab35a-41ce-f51a-22f4-1dc0022700f3","type":"Feature","geometry":{"type":"Point","coordinates":[-84.063188,9.935176]},"properties":{"uuid":"f7bab35a-41ce-f51a-22f4-1dc0022700f3","title":"Tortuguero","accuracy":1000,"created_at":"2017-07-14","possible_answers":{"577bc70392f1e":1}}},{"id":"16a31c03-e776-d565-fbf1-90beba5d5943","type":"Feature","geometry":{"type":"Point","coordinates":[-0.30957,51.50977]},"properties":{"uuid":"16a31c03-e776-d565-fbf1-90beba5d5943","title":"Coachhouse Passion fruit beer","accuracy":3,"created_at":"2017-07-13","possible_answers":{"577bc6c392f1c":1}}},{"id":"e6391a75-4f5d-e2e7-d302-109828d67392","type":"Feature","geometry":{"type":"Point","coordinates":[-0.309225,51.50964]},"properties":{"uuid":"e6391a75-4f5d-e2e7-d302-109828d67392","title":"Grafton Apricot Jungle","accuracy":4,"created_at":"2017-07-13","possible_answers":{"577bc6c392f1c":1}}},{"id":"64cc9a56-39a9-1fbc-a957-c5dc1500db67","type":"Feature","geometry":{"type":"Point","coordinates":[-0.30924,51.509671]},"properties":{"uuid":"64cc9a56-39a9-1fbc-a957-c5dc1500db67","title":"Grafton Lady Ruby Cherry","accuracy":3,"created_at":"2017-07-13","possible_answers":{"577bc6c392f1c":1}}},{"id":"2a9a5cf6-133c-e34a-1b25-79f9107d5ee8","type":"Feature","geometry":{"type":"Point","coordinates":[-0.309284,51.50947]},"properties":{"uuid":"2a9a5cf6-133c-e34a-1b25-79f9107d5ee8","title":"Mauldons Blackberry Porter","accuracy":4,"created_at":"2017-07-13","possible_answers":{"577bc70392f1e":1}}},{"id":"2996db37-6add-d6e4-a744-77effa42f7ba","type":"Feature","geometry":{"type":"Point","coordinates":[-0.309657,51.509844]},"properties":{"uuid":"2996db37-6add-d6e4-a744-77effa42f7ba","title":"Bingham's vanilla stout","accuracy":4,"created_at":"2017-07-13","possible_answers":{"577bc70392f1e":1}}},{"id":"f7b2a390-f7a5-c1ef-46fa-40244d9902ad","type":"Feature","geometry":{"type":"Point","coordinates":[-0.309483,51.509229]},"properties":{"uuid":"f7b2a390-f7a5-c1ef-46fa-40244d9902ad","title":"Saltire Raspberry Blonde","accuracy":5,"created_at":"2017-07-13","possible_answers":{"577bc70392f1e":1}}},{"id":"e63fe689-8746-87c4-d04f-69024b912c75","type":"Feature","geometry":{"type":"Point","coordinates":[-0.309472,51.509796]},"properties":{"uuid":"e63fe689-8746-87c4-d04f-69024b912c75","title":"Coachhouse Lemon and Ginger","accuracy":5,"created_at":"2017-07-13","possible_answers":{"577bc70392f1e":1}}},{"id":"e1fc3eac-553c-88a6-71c6-612f66913d3f","type":"Feature","geometry":{"type":"Point","coordinates":[-0.309459,51.509784]},"properties":{"uuid":"e1fc3eac-553c-88a6-71c6-612f66913d3f","title":"Coachhouse Pineapple fruit beer","accuracy":4,"created_at":"2017-07-13","possible_answers":{"577bc70392f1e":1}}},{"id":"f1d6435a-6b54-23a9-5e66-03e7a013bd53","type":"Feature","geometry":{"type":"Point","coordinates":[-0.309513,51.509794]},"properties":{"uuid":"f1d6435a-6b54-23a9-5e66-03e7a013bd53","title":"Coachhouse Banoffee fruit beer","accuracy":3,"created_at":"2017-07-13","possible_answers":{"577bc70392f1e":1}}},{"id":"830ec2b5-3513-8af1-480f-da2b99d815cb","type":"Feature","geometry":{"type":"Point","coordinates":[-84.05873,9.934189]},"properties":{"uuid":"830ec2b5-3513-8af1-480f-da2b99d815cb","title":"Pilssner","accuracy":1000,"created_at":"2017-07-10","possible_answers":{"577bc70392f1e":1}}},{"id":"5f09dd54-291b-0978-bb37-9353414dd80f","type":"Feature","geometry":{"type":"Point","coordinates":[-84.05873,9.934189]},"properties":{"uuid":"5f09dd54-291b-0978-bb37-9353414dd80f","title":"Dunkel","accuracy":1000,"created_at":"2017-07-10","possible_answers":{"577bc70392f1e":1}}},{"id":"468addc6-165c-2cf0-5e73-edf0d3db780d","type":"Feature","geometry":{"type":"Point","coordinates":[-84.057695,9.934843]},"properties":{"uuid":"468addc6-165c-2cf0-5e73-edf0d3db780d","title":"Imperial","accuracy":119,"created_at":"2017-07-09","possible_answers":{"577bc70392f1e":1}}},{"id":"daea737f-bcf7-c555-1971-4b631c0cd57f","type":"Feature","geometry":{"type":"Point","coordinates":[-84.053901,9.937838]},"properties":{"uuid":"daea737f-bcf7-c555-1971-4b631c0cd57f","title":"Tumba calzones","accuracy":5,"created_at":"2017-07-09","possible_answers":{"577bc70392f1e":1}}},{"id":"73ba74f7-098e-0e23-83a1-852763e9db41","type":"Feature","geometry":{"type":"Point","coordinates":[-84.053896,9.937843]},"properties":{"uuid":"73ba74f7-098e-0e23-83a1-852763e9db41","title":"Pale Ale de Maracuja","accuracy":9,"created_at":"2017-07-08","possible_answers":{"577bc6c392f1c":1}}},{"id":"74a7751b-0d81-7ba9-5001-740ff8cc5343","type":"Feature","geometry":{"type":"Point","coordinates":[-1.741901,53.348172]},"properties":{"uuid":"74a7751b-0d81-7ba9-5001-740ff8cc5343","title":"Old Peculier","accuracy":5,"created_at":"2017-07-02","possible_answers":{"577bc70392f1e":1}}},{"id":"01084df3-1fdc-2d1b-8fe1-5c19aba3f578","type":"Feature","geometry":{"type":"Point","coordinates":[-1.776504,53.343678]},"properties":{"uuid":"01084df3-1fdc-2d1b-8fe1-5c19aba3f578","title":"Unicorn","accuracy":4,"created_at":"2017-07-02","possible_answers":{"577bc70392f1e":1}}},{"id":"a58b9e75-7640-63b0-52f8-29da192ae7c5","type":"Feature","geometry":{"type":"Point","coordinates":[-1.656114,53.329664]},"properties":{"uuid":"a58b9e75-7640-63b0-52f8-29da192ae7c5","title":"Honey Buzzard","accuracy":1000,"created_at":"2017-07-01","possible_answers":{"577bc6c392f1c":1}}},{"id":"b58d9f6c-4dc5-2749-95fc-a8b20163b2d9","type":"Feature","geometry":{"type":"Point","coordinates":[-0.609007,51.483717]},"properties":{"uuid":"b58d9f6c-4dc5-2749-95fc-a8b20163b2d9","title":"Guardsman Best Bitter","accuracy":4,"created_at":"2017-06-25","possible_answers":{"577bc70392f1e":1}}},{"id":"58dcee50-e9dc-3ea6-e6ec-820dbeda5040","type":"Feature","geometry":{"type":"Point","coordinates":[-0.213992,51.466371]},"properties":{"uuid":"58dcee50-e9dc-3ea6-e6ec-820dbeda5040","title":"Sunchaser","accuracy":1521,"created_at":"2017-06-24","possible_answers":{"577bc6c392f1c":1}}},{"id":"61bd9431-adf7-91a3-afaa-01bc03d2ebcc","type":"Feature","geometry":{"type":"Point","coordinates":[-0.171361,51.517167]},"properties":{"uuid":"61bd9431-adf7-91a3-afaa-01bc03d2ebcc","title":"Oak Aged Blonde Ale","accuracy":1630,"created_at":"2017-06-23","possible_answers":{"577bc70392f1e":1}}},{"id":"6e9bb15d-60e0-1621-18ba-02678e6b542d","type":"Feature","geometry":{"type":"Point","coordinates":[-0.173092,51.517096]},"properties":{"uuid":"6e9bb15d-60e0-1621-18ba-02678e6b542d","title":"Radio X Amplified","accuracy":27,"created_at":"2017-06-21","possible_answers":{"577bc70392f1e":1}}},{"id":"8479f4e2-117e-0459-7d09-820b9e17ca95","type":"Feature","geometry":{"type":"Point","coordinates":[-0.172991,51.516863]},"properties":{"uuid":"8479f4e2-117e-0459-7d09-820b9e17ca95","title":"Paddington Pale","accuracy":25,"created_at":"2017-06-21","possible_answers":{"577bc70392f1e":1}}},{"id":"4594f5d8-5ef1-0ab3-fb45-1f0ca17e8113","type":"Feature","geometry":{"type":"Point","coordinates":[-0.173087,51.517006]},"properties":{"uuid":"4594f5d8-5ef1-0ab3-fb45-1f0ca17e8113","title":"Portobello APA","accuracy":15,"created_at":"2017-06-21","possible_answers":{"577bc70392f1e":1}}},{"id":"50a21479-a74d-b2b9-fee4-682bdcfe11ab","type":"Feature","geometry":{"type":"Point","coordinates":[-0.046563,51.492899]},"properties":{"uuid":"50a21479-a74d-b2b9-fee4-682bdcfe11ab","title":"New Realm APA","accuracy":5,"created_at":"2017-06-14","possible_answers":{"577bc70392f1e":1}}},{"id":"f72d6c96-f3a4-39a5-3aaa-b6e9ffa80e12","type":"Feature","geometry":{"type":"Point","coordinates":[-0.073923,51.498934]},"properties":{"uuid":"f72d6c96-f3a4-39a5-3aaa-b6e9ffa80e12","title":"Pale Ale","accuracy":5,"created_at":"2017-06-10","possible_answers":{"577bc70392f1e":1}}},{"id":"c8df026c-ec80-622d-2585-9db012c415fc","type":"Feature","geometry":{"type":"Point","coordinates":[-0.074244,51.499052]},"properties":{"uuid":"c8df026c-ec80-622d-2585-9db012c415fc","title":"5|21","accuracy":1693,"created_at":"2017-06-10","possible_answers":{"577bc6c392f1c":1}}},{"id":"0cf122a9-bb1e-f141-80f2-7d3bd18046d8","type":"Feature","geometry":{"type":"Point","coordinates":[-0.077539,51.496423]},"properties":{"uuid":"0cf122a9-bb1e-f141-80f2-7d3bd18046d8","title":"Beast Mode","accuracy":600,"created_at":"2017-06-10","possible_answers":{"577bc6c392f1c":1}}},{"id":"9c4a4644-c565-fde3-063e-642abf22c795","type":"Feature","geometry":{"type":"Point","coordinates":[-0.20142,51.522702]},"properties":{"uuid":"9c4a4644-c565-fde3-063e-642abf22c795","title":"Five Pale","accuracy":10,"created_at":"2017-06-09","possible_answers":{"577bc70392f1e":1}}},{"id":"f304d1b8-9dba-b09e-b1d4-bfc58c1a4593","type":"Feature","geometry":{"type":"Point","coordinates":[-0.201205,51.522807]},"properties":{"uuid":"f304d1b8-9dba-b09e-b1d4-bfc58c1a4593","title":"Railway Porter","accuracy":24,"created_at":"2017-06-09","possible_answers":{"577bc6c392f1c":1}}},{"id":"88d6ac37-6900-452b-1e0f-c3f7ea611218","type":"Feature","geometry":{"type":"Point","coordinates":[-0.201097,51.522815]},"properties":{"uuid":"88d6ac37-6900-452b-1e0f-c3f7ea611218","title":"Black Cab Stout","accuracy":16,"created_at":"2017-06-09","possible_answers":{"577bc70792f1f":1}}},{"id":"237cb5ea-a1f3-cf38-546e-b0396f66a4f6","type":"Feature","geometry":{"type":"Point","coordinates":[-0.201314,51.522778]},"properties":{"uuid":"237cb5ea-a1f3-cf38-546e-b0396f66a4f6","title":"Beavertown Rhubarb Beer","accuracy":6,"created_at":"2017-06-09","possible_answers":{"577bc70392f1e":1}}},{"id":"63450606-c832-0e13-8df9-c5decefd0810","type":"Feature","geometry":{"type":"Point","coordinates":[-0.187771,51.501551]},"properties":{"uuid":"63450606-c832-0e13-8df9-c5decefd0810","title":"St. Peter Organic Best Bitter","accuracy":1438,"created_at":"2017-06-02","possible_answers":{"577bc70392f1e":1}}},{"id":"0bfb159a-6a2c-7146-a40b-770076f9271b","type":"Feature","geometry":{"type":"Point","coordinates":[14.523408,46.051898]},"properties":{"uuid":"0bfb159a-6a2c-7146-a40b-770076f9271b","title":"Its just coffee","accuracy":273,"created_at":"2017-06-02","possible_answers":{"577bc70792f1f":1}}},{"id":"01870952-0243-6904-5863-f2f82106fd6f","type":"Feature","geometry":{"type":"Point","coordinates":[-0.144099,51.523255]},"properties":{"uuid":"01870952-0243-6904-5863-f2f82106fd6f","title":"Undercurrent","accuracy":192,"created_at":"2017-05-30","possible_answers":{"577bc6c392f1c":1}}},{"id":"0f26bfae-b1a7-37de-547b-12cb661197bd","type":"Feature","geometry":{"type":"Point","coordinates":[12.045663,45.776441]},"properties":{"uuid":"0f26bfae-b1a7-37de-547b-12cb661197bd","title":"Tongerlo","accuracy":6,"created_at":"2017-05-26","possible_answers":{"577bc70392f1e":1}}},{"id":"0cd88dd2-fbf0-7e5e-9c5f-3aca34e0bca2","type":"Feature","geometry":{"type":"Point","coordinates":[12.039294,45.865082]},"properties":{"uuid":"0cd88dd2-fbf0-7e5e-9c5f-3aca34e0bca2","title":"Ilkley Pale Ale","accuracy":2000,"created_at":"2017-05-25","possible_answers":{"577bc70392f1e":1}}},{"id":"e0f78b61-d1ad-b786-3c09-5735da0b4be4","type":"Feature","geometry":{"type":"Point","coordinates":[12.005873,45.826812]},"properties":{"uuid":"e0f78b61-d1ad-b786-3c09-5735da0b4be4","title":"Confiance","accuracy":2595,"created_at":"2017-05-24","possible_answers":{"577bc70392f1e":1}}},{"id":"28a5b072-ef9c-d234-69af-87a9dd45a041","type":"Feature","geometry":{"type":"Point","coordinates":[12.013083,45.815901]},"properties":{"uuid":"28a5b072-ef9c-d234-69af-87a9dd45a041","title":"Grevensteiner","accuracy":6,"created_at":"2017-05-22","possible_answers":{"577bc70392f1e":1}}},{"id":"932677f5-9ac0-dc62-a1b5-634b156fd612","type":"Feature","geometry":{"type":"Point","coordinates":[12.025047,45.851843]},"properties":{"uuid":"932677f5-9ac0-dc62-a1b5-634b156fd612","title":"Franziskaner Weissbier","accuracy":8,"created_at":"2017-05-22","possible_answers":{"577bc70392f1e":1}}},{"id":"7a6eeade-377f-3688-6f6f-59f4467ab9a9","type":"Feature","geometry":{"type":"Point","coordinates":[12.00362,45.831565]},"properties":{"uuid":"7a6eeade-377f-3688-6f6f-59f4467ab9a9","title":"Founders Porter","accuracy":2460,"created_at":"2017-05-20","possible_answers":{"577bc6c392f1c":1}}},{"id":"ffca643b-44df-ff15-78e1-3e6c79a8b94f","type":"Feature","geometry":{"type":"Point","coordinates":[0.122228,52.207299]},"properties":{"uuid":"ffca643b-44df-ff15-78e1-3e6c79a8b94f","title":"Brew house","accuracy":10,"created_at":"2017-05-17","possible_answers":{"577bc6c392f1c":1}}},{"id":"f95266e1-095d-afe0-bbf5-a04eeff46660","type":"Feature","geometry":{"type":"Point","coordinates":[-80.228268,25.765654]},"properties":{"uuid":"f95266e1-095d-afe0-bbf5-a04eeff46660","title":"Reef Donkey Apa","accuracy":5,"created_at":"2017-05-12","possible_answers":{"577bc6c392f1c":1}}},{"id":"ee22fdf9-ef96-8f34-bcc4-3f3fef8321e4","type":"Feature","geometry":{"type":"Point","coordinates":[-80.228271,25.765657]},"properties":{"uuid":"ee22fdf9-ef96-8f34-bcc4-3f3fef8321e4","title":"Caramel Cream Ale (Due South Brewing Co)","accuracy":4,"created_at":"2017-05-12","possible_answers":{"577bc70392f1e":1}}},{"id":"f90e8e22-2e85-a734-d18a-265d6e72cc9a","type":"Feature","geometry":{"type":"Point","coordinates":[-0.205125,51.490479]},"properties":{"uuid":"f90e8e22-2e85-a734-d18a-265d6e72cc9a","title":"SA","accuracy":86,"created_at":"2017-05-11","possible_answers":{"577bc70392f1e":1}}},{"id":"896285fa-646f-7be6-d4e4-91954f57a532","type":"Feature","geometry":{"type":"Point","coordinates":[-0.206747,51.490807]},"properties":{"uuid":"896285fa-646f-7be6-d4e4-91954f57a532","title":"Honky White","accuracy":12,"created_at":"2017-05-11","possible_answers":{"577bc70392f1e":1}}},{"id":"6dcceeb7-b179-b25d-e4e9-1a6adac1c15b","type":"Feature","geometry":{"type":"Point","coordinates":[-0.201308,51.522756]},"properties":{"uuid":"6dcceeb7-b179-b25d-e4e9-1a6adac1c15b","title":"Millionaire - The Wild Beer co","accuracy":6,"created_at":"2017-04-26","possible_answers":{"577bc6c392f1c":1}}},{"id":"20d667be-22a3-2bb5-6b74-71c10b65253a","type":"Feature","geometry":{"type":"Point","coordinates":[-0.178367,51.51942]},"properties":{"uuid":"20d667be-22a3-2bb5-6b74-71c10b65253a","title":"Shed Head","accuracy":143,"created_at":"2017-04-25","possible_answers":{"577bc70f92f20":1}}},{"id":"bd2f9dac-fbb5-0204-f2bc-02868a7b4c61","type":"Feature","geometry":{"type":"Point","coordinates":[11.882968,46.035417]},"properties":{"uuid":"bd2f9dac-fbb5-0204-f2bc-02868a7b4c61","title":"Birra del Centenario","accuracy":10,"created_at":"2017-04-17","possible_answers":{"577bc6c392f1c":1}}},{"id":"97ab1ac2-2136-f4bb-dcdc-e5ac3d4cb417","type":"Feature","geometry":{"type":"Point","coordinates":[12.004896,45.830476]},"properties":{"uuid":"97ab1ac2-2136-f4bb-dcdc-e5ac3d4cb417","title":"Johann Auer","accuracy":32,"created_at":"2017-04-12","possible_answers":{"577bc70392f1e":1}}},{"id":"c0197d08-3d4b-44cb-6afc-1cef27911570","type":"Feature","geometry":{"type":"Point","coordinates":[12.025067,45.851741]},"properties":{"uuid":"c0197d08-3d4b-44cb-6afc-1cef27911570","title":"Anarkica","accuracy":23,"created_at":"2017-04-10","possible_answers":{"577bc70392f1e":1}}},{"id":"e291a7e1-f63d-497e-7a49-f4964f1ece88","type":"Feature","geometry":{"type":"Point","coordinates":[11.897737,45.851188]},"properties":{"uuid":"e291a7e1-f63d-497e-7a49-f4964f1ece88","title":"Dunkel","accuracy":2647,"created_at":"2017-04-08","possible_answers":{"577bc6c392f1c":1}}},{"id":"49f083c9-7cc0-ee5a-56a7-dee9606c9fd9","type":"Feature","geometry":{"type":"Point","coordinates":[11.906015,45.853323]},"properties":{"uuid":"49f083c9-7cc0-ee5a-56a7-dee9606c9fd9","title":"Non Filtrata","accuracy":2591,"created_at":"2017-04-08","possible_answers":{"577bc70392f1e":1}}},{"id":"ca285bdd-bc66-32c3-3506-af8dfc754a46","type":"Feature","geometry":{"type":"Point","coordinates":[-0.308124,50.959279]},"properties":{"uuid":"ca285bdd-bc66-32c3-3506-af8dfc754a46","title":"Pale Ale Dark Star","accuracy":3,"created_at":"2017-04-08","possible_answers":{"577bc70392f1e":1}}},{"id":"cc878ce5-245e-a970-21f8-a1aa43cadf43","type":"Feature","geometry":{"type":"Point","coordinates":[-0.307963,50.959125]},"properties":{"uuid":"cc878ce5-245e-a970-21f8-a1aa43cadf43","title":"American Brown (Dark Star)","accuracy":4,"created_at":"2017-04-08","possible_answers":{"577bc70392f1e":1}}},{"id":"9fa271cd-df50-0ed5-df70-7cfc653d0147","type":"Feature","geometry":{"type":"Point","coordinates":[-0.364859,51.032564]},"properties":{"uuid":"9fa271cd-df50-0ed5-df70-7cfc653d0147","title":"Boon Doggle blonde ale","accuracy":3,"created_at":"2017-04-08","possible_answers":{"577bc70392f1e":1}}},{"id":"1649db90-6aee-609a-7f89-0074bf1ac34f","type":"Feature","geometry":{"type":"Point","coordinates":[12.005138,45.830208]},"properties":{"uuid":"1649db90-6aee-609a-7f89-0074bf1ac34f","title":"Porter","accuracy":123,"created_at":"2017-04-07","possible_answers":{"577bc70392f1e":1}}},{"id":"9b5a404f-4979-62da-8601-167982ba1d43","type":"Feature","geometry":{"type":"Point","coordinates":[12.207967,45.655709]},"properties":{"uuid":"9b5a404f-4979-62da-8601-167982ba1d43","title":"Kozel","accuracy":1606,"created_at":"2017-04-07","possible_answers":{"577bc70392f1e":1}}},{"id":"8fa7bb78-d189-f159-99c3-2f2a65c4c227","type":"Feature","geometry":{"type":"Point","coordinates":[-0.174684,51.453521]},"properties":{"uuid":"8fa7bb78-d189-f159-99c3-2f2a65c4c227","title":"Dracula's Daughter","accuracy":9,"created_at":"2017-03-30","possible_answers":{"577bc6c392f1c":1}}},{"id":"0ed61600-d04b-d239-8d02-d5a21650ede1","type":"Feature","geometry":{"type":"Point","coordinates":[-0.174735,51.453632]},"properties":{"uuid":"0ed61600-d04b-d239-8d02-d5a21650ede1","title":"Elizabethan XXX Special","accuracy":11,"created_at":"2017-03-30","possible_answers":{"577bc6c392f1c":1}}},{"id":"614f8a7e-481e-bd2d-4756-4f25ee8cd5ed","type":"Feature","geometry":{"type":"Point","coordinates":[-0.174826,51.453679]},"properties":{"uuid":"614f8a7e-481e-bd2d-4756-4f25ee8cd5ed","title":"Black Flag Porter","accuracy":96,"created_at":"2017-03-30","possible_answers":{"577bc6c392f1c":1}}},{"id":"d1a273fb-c58e-182c-6699-ef193ed044b2","type":"Feature","geometry":{"type":"Point","coordinates":[-0.17481,51.453427]},"properties":{"uuid":"d1a273fb-c58e-182c-6699-ef193ed044b2","title":"Apricot Jungle","accuracy":221,"created_at":"2017-03-30","possible_answers":{"577bc6c392f1c":1}}},{"id":"2abd7a9e-65dd-9cc9-fde4-c1d79ac4c43e","type":"Feature","geometry":{"type":"Point","coordinates":[-0.174648,51.453488]},"properties":{"uuid":"2abd7a9e-65dd-9cc9-fde4-c1d79ac4c43e","title":"Road Crew","accuracy":19,"created_at":"2017-03-30","possible_answers":{"577bc70392f1e":1}}},{"id":"927c0f73-7782-f810-ed52-ebb0ee838d84","type":"Feature","geometry":{"type":"Point","coordinates":[-0.174522,51.453418]},"properties":{"uuid":"927c0f73-7782-f810-ed52-ebb0ee838d84","title":"Titanic vanilla stout","accuracy":5,"created_at":"2017-03-30","possible_answers":{"577bc6c392f1c":1}}},{"id":"af2c2ecd-4cf9-adb5-bf3c-88472af81bfa","type":"Feature","geometry":{"type":"Point","coordinates":[-1.299169,51.78007]},"properties":{"uuid":"af2c2ecd-4cf9-adb5-bf3c-88472af81bfa","title":"Oxford Gold","accuracy":8,"created_at":"2017-03-24","possible_answers":{"577bc70392f1e":1}}},{"id":"7166b7f1-4937-7952-4a5b-ec3aa4ab0ee1","type":"Feature","geometry":{"type":"Point","coordinates":[12.557666,55.701932]},"properties":{"uuid":"7166b7f1-4937-7952-4a5b-ec3aa4ab0ee1","title":"Na","accuracy":65,"created_at":"2017-03-17","possible_answers":{"577bc70392f1e":1}}},{"id":"1fbc95e5-4bc9-3901-b9d3-d8e28cbe2663","type":"Feature","geometry":{"type":"Point","coordinates":[-0.124771,51.529205]},"properties":{"uuid":"1fbc95e5-4bc9-3901-b9d3-d8e28cbe2663","title":"Granita Pact","accuracy":1000,"created_at":"2017-03-09","possible_answers":{"577bc70392f1e":1}}},{"id":"d23a33ad-fec6-9064-d095-b2e5418f37c9","type":"Feature","geometry":{"type":"Point","coordinates":[-0.124809,51.529194]},"properties":{"uuid":"d23a33ad-fec6-9064-d095-b2e5418f37c9","title":"Orchid","accuracy":1000,"created_at":"2017-03-09","possible_answers":{"577bc6c392f1c":1}}},{"id":"e176aafc-c2af-3c76-6b7b-6dcd8d12a9d9","type":"Feature","geometry":{"type":"Point","coordinates":[-0.124811,51.529193]},"properties":{"uuid":"e176aafc-c2af-3c76-6b7b-6dcd8d12a9d9","title":"Naked Ladies (Twickenham brewery) 4.4%","accuracy":18,"created_at":"2017-03-09","possible_answers":{"577bc70792f1f":1}}},{"id":"a3ee8a09-4118-4cac-0bc8-3368818034e2","type":"Feature","geometry":{"type":"Point","coordinates":[-0.124809,51.529194]},"properties":{"uuid":"a3ee8a09-4118-4cac-0bc8-3368818034e2","title":"Railway Porter","accuracy":1265,"created_at":"2017-03-09","possible_answers":{"577bc6c392f1c":1}}},{"id":"a0cabb9a-4d4e-303a-ab8d-1f55c322fb82","type":"Feature","geometry":{"type":"Point","coordinates":[-0.128666,51.528287]},"properties":{"uuid":"a0cabb9a-4d4e-303a-ab8d-1f55c322fb82","title":"Punk IPA","accuracy":1000,"created_at":"2017-03-09","possible_answers":{"577bc70392f1e":1}}},{"id":"80627de7-c9f6-9160-a64e-9969acbd48b8","type":"Feature","geometry":{"type":"Point","coordinates":[-0.111376,51.514136]},"properties":{"uuid":"80627de7-c9f6-9160-a64e-9969acbd48b8","title":"Seafarers","accuracy":1372,"created_at":"2017-02-16","possible_answers":{"577bc70392f1e":1}}},{"id":"1cb25271-80c2-1380-26f4-c8c624fe6e2f","type":"Feature","geometry":{"type":"Point","coordinates":[-0.111371,51.512162]},"properties":{"uuid":"1cb25271-80c2-1380-26f4-c8c624fe6e2f","title":"London Porter","accuracy":1466,"created_at":"2017-02-16","possible_answers":{"577bc6c392f1c":1}}},{"id":"d6f82e87-1977-dd77-a361-f0b43738a174","type":"Feature","geometry":{"type":"Point","coordinates":[78.482599,17.46309]},"properties":{"uuid":"d6f82e87-1977-dd77-a361-f0b43738a174","title":"Teddy","accuracy":10,"created_at":"2017-02-10","possible_answers":{"577bc6c392f1c":1}}},{"id":"5e70b3f3-53f8-4943-c76d-19c061e41535","type":"Feature","geometry":{"type":"Point","coordinates":[-0.20002,51.522714]},"properties":{"uuid":"5e70b3f3-53f8-4943-c76d-19c061e41535","title":"American Nut Brown","accuracy":17,"created_at":"2017-02-07","possible_answers":{"577bc6c392f1c":1}}},{"id":"f724cb40-f83a-332c-33e5-5aa7e546c59b","type":"Feature","geometry":{"type":"Point","coordinates":[-13.867846,28.453837]},"properties":{"uuid":"f724cb40-f83a-332c-33e5-5aa7e546c59b","title":"Legado de Yuste","accuracy":20,"created_at":"2017-02-07","possible_answers":{"577bc70392f1e":1}}},{"id":"d5ee6918-7689-0851-36fd-97346697f6a5","type":"Feature","geometry":{"type":"Point","coordinates":[-13.86873,28.740731]},"properties":{"uuid":"d5ee6918-7689-0851-36fd-97346697f6a5","title":"Dorada Especial Roja","accuracy":24,"created_at":"2017-02-05","possible_answers":{"577bc70392f1e":1}}},{"id":"534c2372-2507-86cf-1cc3-a22abc3015f2","type":"Feature","geometry":{"type":"Point","coordinates":[-13.868007,28.739407]},"properties":{"uuid":"534c2372-2507-86cf-1cc3-a22abc3015f2","title":"Ichnusa","accuracy":13,"created_at":"2017-02-04","possible_answers":{"577bc70392f1e":1}}},{"id":"55825404-aaa3-af80-5b6d-640b72b3ae71","type":"Feature","geometry":{"type":"Point","coordinates":[-13.868898,28.740798]},"properties":{"uuid":"55825404-aaa3-af80-5b6d-640b72b3ae71","title":"Dorada Especial","accuracy":120,"created_at":"2017-02-04","possible_answers":{"577bc70392f1e":1}}},{"id":"508454fd-eefd-bee8-a7c0-f25a2f3af6a7","type":"Feature","geometry":{"type":"Point","coordinates":[-0.387161,51.198427]},"properties":{"uuid":"508454fd-eefd-bee8-a7c0-f25a2f3af6a7","title":"Hop Troll IPA","accuracy":4,"created_at":"2017-01-28","possible_answers":{"577bc70392f1e":1}}},{"id":"c1c0e10c-11fe-478e-b6f8-51d8e1f3d1b9","type":"Feature","geometry":{"type":"Point","coordinates":[16.628539,47.237969]},"properties":{"uuid":"c1c0e10c-11fe-478e-b6f8-51d8e1f3d1b9","title":"Wine","accuracy":4,"created_at":"2017-01-24","possible_answers":[]}},{"id":"98970c07-c72b-f674-be87-20c7c21bceea","type":"Feature","geometry":{"type":"Point","coordinates":[-0.170282,51.520347]},"properties":{"uuid":"98970c07-c72b-f674-be87-20c7c21bceea","title":"Trappist beer","accuracy":50,"created_at":"2017-01-21","possible_answers":{"577bc70392f1e":1}}},{"id":"6d58ae9d-ba1b-aee9-c195-fd7c0904c781","type":"Feature","geometry":{"type":"Point","coordinates":[-0.209271,51.489111]},"properties":{"uuid":"6d58ae9d-ba1b-aee9-c195-fd7c0904c781","title":"Zephyr Hoppy Pale Ale","accuracy":238,"created_at":"2017-01-18","possible_answers":{"577bc6c392f1c":1}}},{"id":"5bb5c06c-b64d-26c3-3108-48f4c26cfa5a","type":"Feature","geometry":{"type":"Point","coordinates":[-0.2093,51.489351]},"properties":{"uuid":"5bb5c06c-b64d-26c3-3108-48f4c26cfa5a","title":"Winter Warmer","accuracy":23,"created_at":"2017-01-18","possible_answers":{"577bc70392f1e":1}}},{"id":"8d836258-e149-62ab-ce2f-198fa5a27d9b","type":"Feature","geometry":{"type":"Point","coordinates":[12.516716,41.894335]},"properties":{"uuid":"8d836258-e149-62ab-ce2f-198fa5a27d9b","title":"Election Fraud","accuracy":1000,"created_at":"2017-01-14","possible_answers":{"577bc70392f1e":1}}},{"id":"80927e2c-2ffd-5c0c-40ae-0c19e21baeae","type":"Feature","geometry":{"type":"Point","coordinates":[12.515284,41.897242]},"properties":{"uuid":"80927e2c-2ffd-5c0c-40ae-0c19e21baeae","title":"Konrad Lervig, Imperial Stout","accuracy":1000,"created_at":"2017-01-14","possible_answers":{"577bc70392f1e":1}}},{"id":"a7bfa781-a471-4329-ca13-d8cf978c9a9c","type":"Feature","geometry":{"type":"Point","coordinates":[12.517602,41.9002]},"properties":{"uuid":"a7bfa781-a471-4329-ca13-d8cf978c9a9c","title":"Peroni Doppio Malto","accuracy":38,"created_at":"2017-01-14","possible_answers":{"577bc70392f1e":1}}},{"id":"c4a67f01-9883-20a5-08bf-1f5842ef3d5d","type":"Feature","geometry":{"type":"Point","coordinates":[12.515284,41.901212]},"properties":{"uuid":"c4a67f01-9883-20a5-08bf-1f5842ef3d5d","title":"Chocolat Stout","accuracy":1000,"created_at":"2017-01-14","possible_answers":{"577bc6c392f1c":1}}},{"id":"f24af613-5a47-9df7-8fef-65d240e577f1","type":"Feature","geometry":{"type":"Point","coordinates":[12.514573,41.899243]},"properties":{"uuid":"f24af613-5a47-9df7-8fef-65d240e577f1","title":"Birrificio Del Ducato APA","accuracy":25,"created_at":"2017-01-14","possible_answers":{"577bc6c392f1c":1}}},{"id":"a7351f3a-0a33-c511-68da-0e1dec6b0f31","type":"Feature","geometry":{"type":"Point","coordinates":[12.515284,41.899989]},"properties":{"uuid":"a7351f3a-0a33-c511-68da-0e1dec6b0f31","title":"Corva Nera","accuracy":1000,"created_at":"2017-01-14","possible_answers":{"577bc6c392f1c":1}}},{"id":"8c86c820-fa3d-c86e-073a-78f807c5733d","type":"Feature","geometry":{"type":"Point","coordinates":[12.522451,41.888198]},"properties":{"uuid":"8c86c820-fa3d-c86e-073a-78f807c5733d","title":"East Cream Galaxy, Vento Forte","accuracy":1000,"created_at":"2017-01-13","possible_answers":{"577bc70392f1e":1}}},{"id":"bcfb8239-a126-e494-052c-f72e1e13c469","type":"Feature","geometry":{"type":"Point","coordinates":[12.526538,41.888762]},"properties":{"uuid":"bcfb8239-a126-e494-052c-f72e1e13c469","title":"Pontino More Uxorio","accuracy":25,"created_at":"2017-01-13","possible_answers":{"577bc6c392f1c":1}}},{"id":"9251b2e2-0fdd-0c4b-90c3-ade16d7ecec9","type":"Feature","geometry":{"type":"Point","coordinates":[12.529713,41.887321]},"properties":{"uuid":"9251b2e2-0fdd-0c4b-90c3-ade16d7ecec9","title":"Birraficio Del Vesuvio - NAPA","accuracy":19,"created_at":"2017-01-13","possible_answers":{"577bc6c392f1c":1}}},{"id":"09d97471-aaba-41d1-ce83-0fce6a41caf8","type":"Feature","geometry":{"type":"Point","coordinates":[12.538227,41.886454]},"properties":{"uuid":"09d97471-aaba-41d1-ce83-0fce6a41caf8","title":"Riegele IPA","accuracy":1394,"created_at":"2017-01-13","possible_answers":{"577bc6c392f1c":1}}},{"id":"76ad48d9-bece-e75b-9802-a8424a1eb8d6","type":"Feature","geometry":{"type":"Point","coordinates":[12.470126,41.892436]},"properties":{"uuid":"76ad48d9-bece-e75b-9802-a8424a1eb8d6","title":"Trilussa Green","accuracy":1152,"created_at":"2017-01-12","possible_answers":{"577bc70392f1e":1}}},{"id":"3ee6a91f-b115-cdaf-fed1-9749fcd957d3","type":"Feature","geometry":{"type":"Point","coordinates":[12.466902,41.890038]},"properties":{"uuid":"3ee6a91f-b115-cdaf-fed1-9749fcd957d3","title":"Lowenbrau","accuracy":1154,"created_at":"2017-01-12","possible_answers":{"577bc70792f1f":1}}},{"id":"ca01dd55-d31a-b588-f72f-5094d5ac5c4d","type":"Feature","geometry":{"type":"Point","coordinates":[12.475173,41.877364]},"properties":{"uuid":"ca01dd55-d31a-b588-f72f-5094d5ac5c4d","title":"Peroni Rossa","accuracy":37,"created_at":"2017-01-12","possible_answers":{"577bc70392f1e":1}}},{"id":"b0234df1-af14-0bbd-fe75-d5ae9ddf80a6","type":"Feature","geometry":{"type":"Point","coordinates":[12.47232,41.88933]},"properties":{"uuid":"b0234df1-af14-0bbd-fe75-d5ae9ddf80a6","title":"Bad Brewer Amber Ale","accuracy":1000,"created_at":"2017-01-10","possible_answers":{"577bc70392f1e":1}}},{"id":"c9b9532c-fd71-1439-b178-ce5b8e64d904","type":"Feature","geometry":{"type":"Point","coordinates":[12.472267,41.889378]},"properties":{"uuid":"c9b9532c-fd71-1439-b178-ce5b8e64d904","title":"Menabrea Strong","accuracy":20,"created_at":"2017-01-10","possible_answers":{"577bc70392f1e":1}}},{"id":"babbf218-07a7-6b26-f51c-5c6a0f26cdf5","type":"Feature","geometry":{"type":"Point","coordinates":[12.475142,41.901051]},"properties":{"uuid":"babbf218-07a7-6b26-f51c-5c6a0f26cdf5","title":"Kilkenny","accuracy":1000,"created_at":"2017-01-10","possible_answers":{"577bc70392f1e":1}}},{"id":"ff7c2870-b813-e88b-80f0-5e5a9c2076ce","type":"Feature","geometry":{"type":"Point","coordinates":[-0.026978,51.543099]},"properties":{"uuid":"ff7c2870-b813-e88b-80f0-5e5a9c2076ce","title":"Coconut Porter","accuracy":1441,"created_at":"2017-01-06","possible_answers":{"577bc70792f1f":1}}},{"id":"29fcb972-3834-bf53-b6f5-caa787515375","type":"Feature","geometry":{"type":"Point","coordinates":[-0.026243,51.542772]},"properties":{"uuid":"29fcb972-3834-bf53-b6f5-caa787515375","title":"Crate Milk Stout","accuracy":1421,"created_at":"2017-01-06","possible_answers":{"577bc6c392f1c":1}}},{"id":"5550257e-9d96-f477-a212-1aff17fe4e83","type":"Feature","geometry":{"type":"Point","coordinates":[12.047275,45.858673]},"properties":{"uuid":"5550257e-9d96-f477-a212-1aff17fe4e83","title":"Oppale","accuracy":10,"created_at":"2016-12-30","possible_answers":{"577bc70392f1e":1}}},{"id":"8602dad6-9479-ef68-f578-92bce56ae8b6","type":"Feature","geometry":{"type":"Point","coordinates":[12.051342,45.862287]},"properties":{"uuid":"8602dad6-9479-ef68-f578-92bce56ae8b6","title":"Cream Stout","accuracy":2643,"created_at":"2016-12-30","possible_answers":{"577bc70392f1e":1}}},{"id":"0931f591-47a9-f994-c559-d0819d286ee4","type":"Feature","geometry":{"type":"Point","coordinates":[12.005121,45.828697]},"properties":{"uuid":"0931f591-47a9-f994-c559-d0819d286ee4","title":"Slapp","accuracy":1200,"created_at":"2016-12-28","possible_answers":{"577bc70392f1e":1}}},{"id":"46c6559b-0a9d-0d05-c833-2baeef79a09e","type":"Feature","geometry":{"type":"Point","coordinates":[35.013403,-15.787403]},"properties":{"uuid":"46c6559b-0a9d-0d05-c833-2baeef79a09e","title":"?Gcfg","accuracy":4,"created_at":"2016-12-28","possible_answers":{"577bc6c392f1c":1}}},{"id":"3cd6556e-5cf5-700b-385f-767e8df962b3","type":"Feature","geometry":{"type":"Point","coordinates":[11.912914,45.909303]},"properties":{"uuid":"3cd6556e-5cf5-700b-385f-767e8df962b3","title":"Proper Job","accuracy":11,"created_at":"2016-12-23","possible_answers":{"577bc70392f1e":1}}},{"id":"d1c1b72d-0b2a-e84e-08a0-0876f2d7829c","type":"Feature","geometry":{"type":"Point","coordinates":[-0.224979,51.49286]},"properties":{"uuid":"d1c1b72d-0b2a-e84e-08a0-0876f2d7829c","title":"Twickenham Gothic Dark","accuracy":6,"created_at":"2016-12-20","possible_answers":{"577bc70392f1e":1}}},{"id":"6c837586-7bb4-58d5-dd14-0039705411c9","type":"Feature","geometry":{"type":"Point","coordinates":[-0.16627,51.51824]},"properties":{"uuid":"6c837586-7bb4-58d5-dd14-0039705411c9","title":"Four Chimneys, Sambrooke Brewery","accuracy":90,"created_at":"2016-12-13","possible_answers":{"577bc6c392f1c":1}}},{"id":"51f7b10b-ab41-0e11-bf95-fb419d29a3ae","type":"Feature","geometry":{"type":"Point","coordinates":[-0.180685,51.499161]},"properties":{"uuid":"51f7b10b-ab41-0e11-bf95-fb419d29a3ae","title":"Rockin Rudolph","accuracy":176,"created_at":"2016-12-13","possible_answers":{"577bc6c392f1c":1}}},{"id":"f9543ce7-d03c-eead-403f-eeffcf76324e","type":"Feature","geometry":{"type":"Point","coordinates":[-0.180705,51.499205]},"properties":{"uuid":"f9543ce7-d03c-eead-403f-eeffcf76324e","title":"Wild Holly","accuracy":16,"created_at":"2016-12-13","possible_answers":{"577bc70392f1e":1}}},{"id":"dc79b745-431b-f2d3-1589-081008d11e0a","type":"Feature","geometry":{"type":"Point","coordinates":[-0.052168,51.55232]},"properties":{"uuid":"dc79b745-431b-f2d3-1589-081008d11e0a","title":"Lemon Citra","accuracy":12,"created_at":"2016-12-03","possible_answers":{"577bc70792f1f":1}}},{"id":"d2c273b7-b966-2813-b127-2afa4428f107","type":"Feature","geometry":{"type":"Point","coordinates":[-0.051605,51.552559]},"properties":{"uuid":"d2c273b7-b966-2813-b127-2afa4428f107","title":"Wheat Beer, One Mile End","accuracy":12,"created_at":"2016-12-03","possible_answers":{"577bc6c392f1c":1}}},{"id":"98126748-fac6-d8b0-fd66-ea3fa92816d4","type":"Feature","geometry":{"type":"Point","coordinates":[-0.051486,51.55236]},"properties":{"uuid":"98126748-fac6-d8b0-fd66-ea3fa92816d4","title":"Stroller","accuracy":11,"created_at":"2016-12-03","possible_answers":{"577bc70392f1e":1}}},{"id":"18196f59-067a-5d77-7821-9de48b6dfcaf","type":"Feature","geometry":{"type":"Point","coordinates":[-0.22442,51.493247]},"properties":{"uuid":"18196f59-067a-5d77-7821-9de48b6dfcaf","title":"Imperial Stout","accuracy":223,"created_at":"2016-11-29","possible_answers":{"577bc6c392f1c":1}}},{"id":"9c37565c-fce6-a0ff-52bc-b8458269c5cb","type":"Feature","geometry":{"type":"Point","coordinates":[-0.225257,51.492641]},"properties":{"uuid":"9c37565c-fce6-a0ff-52bc-b8458269c5cb","title":"Space Hoppy","accuracy":368,"created_at":"2016-11-29","possible_answers":{"577bc6c392f1c":1}}},{"id":"984dbc69-46a0-a091-eeee-98d5166f3622","type":"Feature","geometry":{"type":"Point","coordinates":[12.025125,45.851858]},"properties":{"uuid":"984dbc69-46a0-a091-eeee-98d5166f3622","title":"Duse","accuracy":34,"created_at":"2016-11-07","possible_answers":{"577bc6c392f1c":1}}},{"id":"5e2d8f9e-faff-80ab-3eec-fa64151a546e","type":"Feature","geometry":{"type":"Point","coordinates":[-74.061691,4.654159]},"properties":{"uuid":"5e2d8f9e-faff-80ab-3eec-fa64151a546e","title":"Club Colombia Roja","accuracy":9,"created_at":"2016-11-07","possible_answers":{"577bc70392f1e":1}}},{"id":"b184e1d0-e104-99d3-055a-2499eba0da6d","type":"Feature","geometry":{"type":"Point","coordinates":[12.050226,45.862411]},"properties":{"uuid":"b184e1d0-e104-99d3-055a-2499eba0da6d","title":"Golden Ale","accuracy":2489,"created_at":"2016-11-06","possible_answers":{"577bc70392f1e":1}}},{"id":"0c76ba21-7537-57a0-0c96-7bc10269cf8e","type":"Feature","geometry":{"type":"Point","coordinates":[-74.061693,4.654159]},"properties":{"uuid":"0c76ba21-7537-57a0-0c96-7bc10269cf8e","title":"BBC Chapinero","accuracy":4,"created_at":"2016-11-04","possible_answers":{"577bc6c392f1c":1}}},{"id":"fe5aed04-f5b2-2210-8678-a9bddefdcd68","type":"Feature","geometry":{"type":"Point","coordinates":[-74.061677,4.654345]},"properties":{"uuid":"fe5aed04-f5b2-2210-8678-a9bddefdcd68","title":"BBC Candelaria","accuracy":44,"created_at":"2016-11-04","possible_answers":{"577bc6c392f1c":1}}},{"id":"a8038633-d2f1-2b42-1c64-d14844bf74d7","type":"Feature","geometry":{"type":"Point","coordinates":[-0.174585,51.453485]},"properties":{"uuid":"a8038633-d2f1-2b42-1c64-d14844bf74d7","title":"Skull Splitter","accuracy":5,"created_at":"2016-10-28","possible_answers":{"577bc70392f1e":1}}},{"id":"393e1d84-227c-1bd0-05aa-15e97f4db8b8","type":"Feature","geometry":{"type":"Point","coordinates":[-0.174669,51.453668]},"properties":{"uuid":"393e1d84-227c-1bd0-05aa-15e97f4db8b8","title":"Seen Red","accuracy":13,"created_at":"2016-10-28","possible_answers":{"577bc6c392f1c":1}}},{"id":"9de881b6-c60e-9a81-ee4f-ea73282ca831","type":"Feature","geometry":{"type":"Point","coordinates":[-0.174463,51.453551]},"properties":{"uuid":"9de881b6-c60e-9a81-ee4f-ea73282ca831","title":"Bohemian Hipster","accuracy":10,"created_at":"2016-10-28","possible_answers":{"577bc6c392f1c":1}}},{"id":"490daf7f-8846-e25c-3f6a-b69b5ba7e6cc","type":"Feature","geometry":{"type":"Point","coordinates":[-0.17451,51.453435]},"properties":{"uuid":"490daf7f-8846-e25c-3f6a-b69b5ba7e6cc","title":"Crop Circle","accuracy":6,"created_at":"2016-10-28","possible_answers":{"577bc70392f1e":1}}},{"id":"3edb7ea6-db08-077a-a2a9-88b13d328eb2","type":"Feature","geometry":{"type":"Point","coordinates":[-0.174501,51.453482]},"properties":{"uuid":"3edb7ea6-db08-077a-a2a9-88b13d328eb2","title":"Chocolate Orange","accuracy":4,"created_at":"2016-10-28","possible_answers":{"577bc70392f1e":1}}},{"id":"7b53c4ab-089e-26cd-0e10-98c34e7be1aa","type":"Feature","geometry":{"type":"Point","coordinates":[-0.174474,51.453501]},"properties":{"uuid":"7b53c4ab-089e-26cd-0e10-98c34e7be1aa","title":"Cherry Dark","accuracy":4,"created_at":"2016-10-28","possible_answers":{"577bc70792f1f":1}}},{"id":"2794bb09-3ec1-3ec7-dd93-32d87cf75623","type":"Feature","geometry":{"type":"Point","coordinates":[-0.174475,51.453527]},"properties":{"uuid":"2794bb09-3ec1-3ec7-dd93-32d87cf75623","title":"Pause","accuracy":5,"created_at":"2016-10-28","possible_answers":{"577bc70792f1f":1}}},{"id":"1eec2487-1088-a081-a531-c46882225b09","type":"Feature","geometry":{"type":"Point","coordinates":["-1.572650","50.818268"]},"properties":{"uuid":"1eec2487-1088-a081-a531-c46882225b09","title":"Best Bitter","accuracy":4,"created_at":"2016-09-04","possible_answers":{"577bc6c392f1c":1}}},{"id":"ed21e0a1-6934-3552-c091-27cb1902876a","type":"Feature","geometry":{"type":"Point","coordinates":["-1.734721","50.883466"]},"properties":{"uuid":"ed21e0a1-6934-3552-c091-27cb1902876a","title":"Muddy Boot","accuracy":10,"created_at":"2016-09-04","possible_answers":{"577bc70792f1f":1}}},{"id":"b6d8322a-81f0-9d56-59e5-1b4a48f0aaa6","type":"Feature","geometry":{"type":"Point","coordinates":["-1.832233","53.411720"]},"properties":{"uuid":"b6d8322a-81f0-9d56-59e5-1b4a48f0aaa6","title":"Black Sheep","accuracy":4,"created_at":"2016-08-29","possible_answers":{"577bc6c392f1c":1}}},{"id":"71749574-4977-dea9-9fa2-0c0b51d7a080","type":"Feature","geometry":{"type":"Point","coordinates":["-1.832358","53.411673"]},"properties":{"uuid":"71749574-4977-dea9-9fa2-0c0b51d7a080","title":"Moonshine","accuracy":4,"created_at":"2016-08-29","possible_answers":{"577bc6c392f1c":1}}},{"id":"38b6c486-adfc-f454-f25a-ad116b91c51d","type":"Feature","geometry":{"type":"Point","coordinates":["-1.771147","53.351018"]},"properties":{"uuid":"38b6c486-adfc-f454-f25a-ad116b91c51d","title":"Oyster Stout","accuracy":8,"created_at":"2016-08-28","possible_answers":{"577bc6c392f1c":1}}},{"id":"552f313b-d265-aa23-1e1e-59491ede2726","type":"Feature","geometry":{"type":"Point","coordinates":["-0.166078","51.520015"]},"properties":{"uuid":"552f313b-d265-aa23-1e1e-59491ede2726","title":"Shed Head","accuracy":8,"created_at":"2016-08-24","possible_answers":{"577bc70392f1e":1}}},{"id":"8fc89547-e7ac-59c2-744a-4fb431bf2a68","type":"Feature","geometry":{"type":"Point","coordinates":["-0.165888","51.519834"]},"properties":{"uuid":"8fc89547-e7ac-59c2-744a-4fb431bf2a68","title":"Shedhead","accuracy":3,"created_at":"2016-08-24","possible_answers":{"577bc70392f1e":1}}},{"id":"1a5f6ef5-7287-15ba-94a5-2baea73f8f1b","type":"Feature","geometry":{"type":"Point","coordinates":["-0.166047","51.519777"]},"properties":{"uuid":"1a5f6ef5-7287-15ba-94a5-2baea73f8f1b","title":"Black Sheep","accuracy":20,"created_at":"2016-08-24","possible_answers":{"577bc70392f1e":1}}},{"id":"3168ee08-a25f-d785-cc50-53f9de49bc1f","type":"Feature","geometry":{"type":"Point","coordinates":["-0.172652","51.517970"]},"properties":{"uuid":"3168ee08-a25f-d785-cc50-53f9de49bc1f","title":"Hcf","accuracy":50,"created_at":"2016-08-24","possible_answers":{"577bc6c392f1c":1}}},{"id":"94c5d0a6-18d4-07f2-c8c5-aa3d5793d5fd","type":"Feature","geometry":{"type":"Point","coordinates":["-0.172678","51.517952"]},"properties":{"uuid":"94c5d0a6-18d4-07f2-c8c5-aa3d5793d5fd","title":"Evian","accuracy":10,"created_at":"2016-08-24","possible_answers":[]}},{"id":"541852bb-41b7-a52c-7e2e-d87fded29a99","type":"Feature","geometry":{"type":"Point","coordinates":["-0.172854","51.518040"]},"properties":{"uuid":"541852bb-41b7-a52c-7e2e-d87fded29a99","title":"8 ball","accuracy":65,"created_at":"2016-08-24","possible_answers":{"577bc70792f1f":1}}},{"id":"185cd534-9e42-5e36-f054-620813eed66e","type":"Feature","geometry":{"type":"Point","coordinates":["-2.081361","51.063928"]},"properties":{"uuid":"185cd534-9e42-5e36-f054-620813eed66e","title":"Posh IPA","accuracy":4,"created_at":"2016-08-21","possible_answers":{"577bc6c392f1c":1}}},{"id":"95cdcd93-41fc-ced2-cac7-446869423c64","type":"Feature","geometry":{"type":"Point","coordinates":["-0.210794","51.496833"]},"properties":{"uuid":"95cdcd93-41fc-ced2-cac7-446869423c64","title":"Titanic Stout (chocolate and vanilla)","accuracy":10,"created_at":"2016-08-13","possible_answers":{"577bc6c392f1c":1}}},{"id":"1d36a09c-27e4-bc23-d403-ad70a941f873","type":"Feature","geometry":{"type":"Point","coordinates":["-0.210649","51.496796"]},"properties":{"uuid":"1d36a09c-27e4-bc23-d403-ad70a941f873","title":"Tribute Italian Job","accuracy":11,"created_at":"2016-08-13","possible_answers":{"577bc6c392f1c":1}}},{"id":"c07ffa53-4503-3e28-20fa-ea21720ed336","type":"Feature","geometry":{"type":"Point","coordinates":["-0.211647","51.496258"]},"properties":{"uuid":"c07ffa53-4503-3e28-20fa-ea21720ed336","title":"Phuchsia","accuracy":19,"created_at":"2016-08-13","possible_answers":{"577bc6c392f1c":1}}},{"id":"75bcfc42-825b-1017-6ef1-67967f62a7d2","type":"Feature","geometry":{"type":"Point","coordinates":["6.871890","45.923721"]},"properties":{"uuid":"75bcfc42-825b-1017-6ef1-67967f62a7d2","title":"La Blanche","accuracy":10,"created_at":"2016-08-13","possible_answers":{"577bc6c392f1c":1}}},{"id":"7db71fb2-72a8-5a88-dec9-60782671cde6","type":"Feature","geometry":{"type":"Point","coordinates":["6.791671","45.889519"]},"properties":{"uuid":"7db71fb2-72a8-5a88-dec9-60782671cde6","title":"La Verte","accuracy":12,"created_at":"2016-08-07","possible_answers":{"577bc6c392f1c":1}}},{"id":"4027c50a-e656-7329-adc5-f9f0fa8504b2","type":"Feature","geometry":{"type":"Point","coordinates":["6.791680","45.889535"]},"properties":{"uuid":"4027c50a-e656-7329-adc5-f9f0fa8504b2","title":"La Blanche","accuracy":12,"created_at":"2016-08-07","possible_answers":{"577bc6c392f1c":1}}},{"id":"3314f397-da21-9a64-def6-c1c47d250202","type":"Feature","geometry":{"type":"Point","coordinates":["0.136659","52.189949"]},"properties":{"uuid":"3314f397-da21-9a64-def6-c1c47d250202","title":"Brahma","accuracy":19,"created_at":"2016-08-04","possible_answers":{"577bc70f92f20":1}}},{"id":"fffcb693-6e5b-cc49-78e9-58a6cda6071f","type":"Feature","geometry":{"type":"Point","coordinates":["-4.179397","51.593476"]},"properties":{"uuid":"fffcb693-6e5b-cc49-78e9-58a6cda6071f","title":"Gower beer","accuracy":5,"created_at":"2016-08-02","possible_answers":{"577bc6c392f1c":1}}},{"id":"69b47aeb-2a77-4e2a-a688-37280dc9265d","type":"Feature","geometry":{"type":"Point","coordinates":["-0.212591","50.885035"]},"properties":{"uuid":"69b47aeb-2a77-4e2a-a688-37280dc9265d","title":"Harvey's Best Bitter","accuracy":5,"created_at":"2016-07-31","possible_answers":{"577bc6c392f1c":1}}},{"id":"5fa5a86a-06b9-afb5-b979-71bb41d1eed4","type":"Feature","geometry":{"type":"Point","coordinates":["-4.269761","51.600181"]},"properties":{"uuid":"5fa5a86a-06b9-afb5-b979-71bb41d1eed4","title":"Guinness","accuracy":5,"created_at":"2016-07-31","possible_answers":{"577bc6c392f1c":1}}},{"id":"69b60c26-cb04-0be2-fbbf-6c8d37d8957b","type":"Feature","geometry":{"type":"Point","coordinates":["0.176997","52.071655"]},"properties":{"uuid":"69b60c26-cb04-0be2-fbbf-6c8d37d8957b","title":"Timothy Taylor's Landlord","accuracy":3,"created_at":"2016-07-29","possible_answers":{"577bc6c392f1c":1}}},{"id":"4c14e162-9c41-24b8-93a8-a6b3fb898fec","type":"Feature","geometry":{"type":"Point","coordinates":["0.177263","52.071583"]},"properties":{"uuid":"4c14e162-9c41-24b8-93a8-a6b3fb898fec","title":"Bath Ale Gem","accuracy":12,"created_at":"2016-07-29","possible_answers":{"577bc6c392f1c":1}}},{"id":"bc9ec9ab-1490-848d-bd10-3bc0d21f7c90","type":"Feature","geometry":{"type":"Point","coordinates":["-0.100654","51.494763"]},"properties":{"uuid":"bc9ec9ab-1490-848d-bd10-3bc0d21f7c90","title":"Blue Moon","accuracy":500,"created_at":"2016-07-25","possible_answers":{"577bc6c392f1c":1}}},{"id":"1de1a3bb-c492-06f9-4b12-d2de040bd586","type":"Feature","geometry":{"type":"Point","coordinates":["1.023736","51.356565"]},"properties":{"uuid":"1de1a3bb-c492-06f9-4b12-d2de040bd586","title":"Incubus","accuracy":10,"created_at":"2016-07-23","possible_answers":{"577bc6c392f1c":1}}},{"id":"27b07db6-df23-58d6-9625-e324639425ac","type":"Feature","geometry":{"type":"Point","coordinates":["1.025214","51.364366"]},"properties":{"uuid":"27b07db6-df23-58d6-9625-e324639425ac","title":"East India Pale Ale by Whitstable Brewery","accuracy":4,"created_at":"2016-07-23","possible_answers":{"577bc70392f1e":1}}},{"id":"ea772d02-635d-fdf3-9d5b-d35caa694eda","type":"Feature","geometry":{"type":"Point","coordinates":["1.025254","51.364353"]},"properties":{"uuid":"ea772d02-635d-fdf3-9d5b-d35caa694eda","title":"Raspberry Wheat by Whitstable Brewery","accuracy":4,"created_at":"2016-07-23","possible_answers":{"577bc6c392f1c":1}}},{"id":"1a40ff77-50c4-f4e0-65aa-140111986807","type":"Feature","geometry":{"type":"Point","coordinates":["-0.356781","51.706945"]},"properties":{"uuid":"1a40ff77-50c4-f4e0-65aa-140111986807","title":"Eagle IPA","accuracy":4,"created_at":"2016-07-19","possible_answers":{"577bc6c392f1c":1}}},{"id":"a88fd531-b504-5728-08f8-b9bcc544fcb5","type":"Feature","geometry":{"type":"Point","coordinates":["-0.485753","51.529648"]},"properties":{"uuid":"a88fd531-b504-5728-08f8-b9bcc544fcb5","title":"Camden Pale Ale","accuracy":4,"created_at":"2016-07-19","possible_answers":{"577bc70392f1e":1}}},{"id":"c0a56dbc-722c-1518-f154-bbea42872ae7","type":"Feature","geometry":{"type":"Point","coordinates":["-1.572698","50.818216"]},"properties":{"uuid":"c0a56dbc-722c-1518-f154-bbea42872ae7","title":"49ers","accuracy":4,"created_at":"2016-07-17","possible_answers":{"577bc6c392f1c":1}}},{"id":"848edb06-61d4-fd59-4791-08ca1f4ae1d2","type":"Feature","geometry":{"type":"Point","coordinates":["-1.702270","50.825918"]},"properties":{"uuid":"848edb06-61d4-fd59-4791-08ca1f4ae1d2","title":"Best Bitter","accuracy":4,"created_at":"2016-07-17","possible_answers":{"577bc6c392f1c":1}}},{"id":"7555a44f-a5d5-d251-2f36-75755a759c96","type":"Feature","geometry":{"type":"Point","coordinates":["0.167921","52.223987"]},"properties":{"uuid":"7555a44f-a5d5-d251-2f36-75755a759c96","title":"Ubu","accuracy":3,"created_at":"2016-07-17","possible_answers":{"577bc6c392f1c":1}}},{"id":"40bfabfa-9c09-e2c9-64e7-57a18c270c79","type":"Feature","geometry":{"type":"Point","coordinates":["0.167920","52.223967"]},"properties":{"uuid":"40bfabfa-9c09-e2c9-64e7-57a18c270c79","title":"Brewdog Nanny State","accuracy":3,"created_at":"2016-07-17","possible_answers":{"577bc6c392f1c":1}}},{"id":"f343bbe3-7076-b332-44d6-9d3c21eae832","type":"Feature","geometry":{"type":"Point","coordinates":["0.167921","52.223966"]},"properties":{"uuid":"f343bbe3-7076-b332-44d6-9d3c21eae832","title":"Sierra Nevada pale ale","accuracy":3,"created_at":"2016-07-17","possible_answers":{"577bc6c392f1c":1}}},{"id":"ba0a155f-6a65-2415-81e2-a509b1fe5954","type":"Feature","geometry":{"type":"Point","coordinates":["0.167922","52.223961"]},"properties":{"uuid":"ba0a155f-6a65-2415-81e2-a509b1fe5954","title":"Mortimers","accuracy":3,"created_at":"2016-07-17","possible_answers":{"577bc70392f1e":1}}},{"id":"28444076-9363-a9e1-ed3a-b0da3aef4ef5","type":"Feature","geometry":{"type":"Point","coordinates":["0.167945","52.223924"]},"properties":{"uuid":"28444076-9363-a9e1-ed3a-b0da3aef4ef5","title":"London Pale Ale","accuracy":3,"created_at":"2016-07-17","possible_answers":{"577bc70392f1e":1}}},{"id":"9900de33-3601-0ec1-57ce-ccfca60bca51","type":"Feature","geometry":{"type":"Point","coordinates":["-0.136353","51.511148"]},"properties":{"uuid":"9900de33-3601-0ec1-57ce-ccfca60bca51","title":"Kirin","accuracy":1000,"created_at":"2016-07-16","possible_answers":{"577bc70392f1e":1}}},{"id":"56bb0a99-7b9a-357f-4a2e-2e8069d19f6b","type":"Feature","geometry":{"type":"Point","coordinates":["-0.137072","51.510574"]},"properties":{"uuid":"56bb0a99-7b9a-357f-4a2e-2e8069d19f6b","title":"Lavender Hill","accuracy":17,"created_at":"2016-07-16","possible_answers":{"577bc70792f1f":1}}},{"id":"74b316c6-35fc-be2c-3690-3a2db38b8eed","type":"Feature","geometry":{"type":"Point","coordinates":["-3.089400","54.448618"]},"properties":{"uuid":"74b316c6-35fc-be2c-3690-3a2db38b8eed","title":"Sticklebarn","accuracy":1278,"created_at":"2016-07-10","possible_answers":{"577bc70392f1e":1}}},{"id":"a5a73db4-003c-2440-ba89-baa172a349d8","type":"Feature","geometry":{"type":"Point","coordinates":["0.131416","52.194449"]},"properties":{"uuid":"a5a73db4-003c-2440-ba89-baa172a349d8","title":"Brooklyn brewery","accuracy":5,"created_at":"2016-07-08","possible_answers":{"577bc70392f1e":1}}},{"id":"3b6f710d-4432-afb3-4b8b-07bc211b85d6","type":"Feature","geometry":{"type":"Point","coordinates":["0.134443","52.158877"]},"properties":{"uuid":"3b6f710d-4432-afb3-4b8b-07bc211b85d6","title":"Addies","accuracy":5,"created_at":"2016-07-08","possible_answers":{"577bc6c392f1c":1}}},{"id":"6a5fd58f-0731-3b5b-9718-717d9124fd47","type":"Feature","geometry":{"type":"Point","coordinates":["0.135710","52.150300"]},"properties":{"uuid":"6a5fd58f-0731-3b5b-9718-717d9124fd47","title":"Whoknows","accuracy":10,"created_at":"2016-07-08","possible_answers":{"577bc70792f1f":1}}},{"id":"473b12eb-d95d-915c-dabb-1707828fa111","type":"Feature","geometry":{"type":"Point","coordinates":["0.133940","52.148774"]},"properties":{"uuid":"473b12eb-d95d-915c-dabb-1707828fa111","title":"Amstel","accuracy":5,"created_at":"2016-07-08","possible_answers":{"577bc6c392f1c":1}}},{"id":"0da9b5ba-120b-6aec-17c2-afe8b48ffde9","type":"Feature","geometry":{"type":"Point","coordinates":["0.141221","52.115956"]},"properties":{"uuid":"0da9b5ba-120b-6aec-17c2-afe8b48ffde9","title":"Kore","accuracy":10,"created_at":"2016-07-08","possible_answers":{"577bc6c392f1c":1}}},{"id":"40133a8d-2836-7e86-18a8-ee36eecabdeb","type":"Feature","geometry":{"type":"Point","coordinates":["0.185160","52.079370"]},"properties":{"uuid":"40133a8d-2836-7e86-18a8-ee36eecabdeb","title":"Igs","accuracy":67,"created_at":"2016-07-08","possible_answers":{"577bc70792f1f":1}}},{"id":"1dbd0ecb-8406-5b98-e274-7dc61c918f9f","type":"Feature","geometry":{"type":"Point","coordinates":["0.185063","52.079376"]},"properties":{"uuid":"1dbd0ecb-8406-5b98-e274-7dc61c918f9f","title":"Ballygowan","accuracy":10,"created_at":"2016-07-07","possible_answers":{"577bc70f92f20":1}}},{"id":"e5017921-1f93-f2e1-f762-20848bf95e59","type":"Feature","geometry":{"type":"Point","coordinates":["-0.309542","51.509817"]},"properties":{"uuid":"e5017921-1f93-f2e1-f762-20848bf95e59","title":"e5017921-1f93-f2e1-f762-20848bf95e59","accuracy":4,"created_at":"2016-07-06","possible_answers":{"577bc6c392f1c":1}}},{"id":"a4265205-694f-9ee7-a56d-2b5687a98c8a","type":"Feature","geometry":{"type":"Point","coordinates":["-0.309270","51.509745"]},"properties":{"uuid":"a4265205-694f-9ee7-a56d-2b5687a98c8a","title":"a4265205-694f-9ee7-a56d-2b5687a98c8a","accuracy":4,"created_at":"2016-07-06","possible_answers":{"577bc70392f1e":1}}},{"id":"8726a9a8-20f5-8457-c20e-ec086d9c9ec0","type":"Feature","geometry":{"type":"Point","coordinates":["-0.309495","51.509106"]},"properties":{"uuid":"8726a9a8-20f5-8457-c20e-ec086d9c9ec0","title":"8726a9a8-20f5-8457-c20e-ec086d9c9ec0","accuracy":4,"created_at":"2016-07-06","possible_answers":{"577bc70392f1e":1}}},{"id":"c2b89dbe-1a03-5c4b-ebcb-b56cdfa64f3d","type":"Feature","geometry":{"type":"Point","coordinates":["-0.309667","51.509842"]},"properties":{"uuid":"c2b89dbe-1a03-5c4b-ebcb-b56cdfa64f3d","title":"c2b89dbe-1a03-5c4b-ebcb-b56cdfa64f3d","accuracy":4,"created_at":"2016-07-06","possible_answers":{"577bc70392f1e":1}}},{"id":"411294f4-16c3-7460-41ec-843ab64188b3","type":"Feature","geometry":{"type":"Point","coordinates":["-0.309251","51.509803"]},"properties":{"uuid":"411294f4-16c3-7460-41ec-843ab64188b3","title":"411294f4-16c3-7460-41ec-843ab64188b3","accuracy":4,"created_at":"2016-07-06","possible_answers":{"577bc6c392f1c":1}}},{"id":"9dd977c8-21c1-c24b-a1ec-90dc8fdd5534","type":"Feature","geometry":{"type":"Point","coordinates":["-0.309479","51.509777"]},"properties":{"uuid":"9dd977c8-21c1-c24b-a1ec-90dc8fdd5534","title":"9dd977c8-21c1-c24b-a1ec-90dc8fdd5534","accuracy":4,"created_at":"2016-07-06","possible_answers":{"577bc70392f1e":1}}},{"id":"5a80906d-41c0-7109-25f9-d7b230f3f28a","type":"Feature","geometry":{"type":"Point","coordinates":["-0.309982","51.509565"]},"properties":{"uuid":"5a80906d-41c0-7109-25f9-d7b230f3f28a","title":"5a80906d-41c0-7109-25f9-d7b230f3f28a","accuracy":4,"created_at":"2016-07-06","possible_answers":{"577bc6c392f1c":1}}},{"id":"8f247d39-6bdf-3645-b621-b71ccdbac847","type":"Feature","geometry":{"type":"Point","coordinates":["-0.485514","51.529525"]},"properties":{"uuid":"8f247d39-6bdf-3645-b621-b71ccdbac847","title":"8f247d39-6bdf-3645-b621-b71ccdbac847","accuracy":96,"created_at":"2016-07-05","possible_answers":{"577bc70792f1f":1}}},{"id":"07a0c856-dc87-22ca-6c86-5905b574147e","type":"Feature","geometry":{"type":"Point","coordinates":["-0.060272","51.588471"]},"properties":{"uuid":"07a0c856-dc87-22ca-6c86-5905b574147e","title":"07a0c856-dc87-22ca-6c86-5905b574147e","accuracy":5,"created_at":"2016-07-05","possible_answers":{"577bc70392f1e":1}}}]}}}
